{
"type": "FeatureCollection",
"name": "hotosm_omn_populated_places_points_geojson",
"features": [
{ "type": "Feature", "properties": { "name": "Ar Rihaybah", "name:en": null, "place": "village", "landuse": null, "population": null, "is_in": null, "source": "https://www.mindat.org/feature-11800173.html", "name:ar": null, "osm_id": 10771560870, "osm_type": "nodes" }, "geometry": { "type": "Point", "coordinates": [ 56.9542451, 23.5098338 ] } },
{ "type": "Feature", "properties": { "name": null, "name:en": null, "place": "hamlet", "landuse": null, "population": null, "is_in": null, "source": null, "name:ar": null, "osm_id": 2320846931, "osm_type": "nodes" }, "geometry": { "type": "Point", "coordinates": [ 56.9292102, 23.5014544 ] } },
{ "type": "Feature", "properties": { "name": "مرتفعات عبري", "name:en": "Murtafa'at Ibri", "place": "village", "landuse": null, "population": null, "is_in": null, "source": null, "name:ar": null, "osm_id": 3812221129, "osm_type": "nodes" }, "geometry": { "type": "Point", "coordinates": [ 56.4898787, 23.1954606 ] } },
{ "type": "Feature", "properties": { "name": "مزرع بن خاطر", "name:en": "Mazra bin Khater", "place": "village", "landuse": null, "population": null, "is_in": null, "source": null, "name:ar": null, "osm_id": 3812241190, "osm_type": "nodes" }, "geometry": { "type": "Point", "coordinates": [ 56.4938582, 23.2091223 ] } },
{ "type": "Feature", "properties": { "name": "الدريز", "name:en": "Ad Dariz", "place": "village", "landuse": null, "population": null, "is_in": null, "source": null, "name:ar": "الدريز", "osm_id": 1721807540, "osm_type": "nodes" }, "geometry": { "type": "Point", "coordinates": [ 56.62, 23.32 ] } },
{ "type": "Feature", "properties": { "name": "كاواس", "name:en": "Kawas", "place": "village", "landuse": null, "population": null, "is_in": null, "source": null, "name:ar": null, "osm_id": 3469091016, "osm_type": "nodes" }, "geometry": { "type": "Point", "coordinates": [ 56.5163207, 23.2402272 ] } },
{ "type": "Feature", "properties": { "name": "المرتفع", "name:en": "AL Murtafa", "place": "village", "landuse": null, "population": null, "is_in": null, "source": null, "name:ar": null, "osm_id": 3812689899, "osm_type": "nodes" }, "geometry": { "type": "Point", "coordinates": [ 56.5135828, 23.2313268 ] } },
{ "type": "Feature", "properties": { "name": "al Hafer", "name:en": null, "place": "village", "landuse": null, "population": null, "is_in": null, "source": null, "name:ar": null, "osm_id": 5160218569, "osm_type": "nodes" }, "geometry": { "type": "Point", "coordinates": [ 57.3921047, 22.6066007 ] } },
{ "type": "Feature", "properties": { "name": null, "name:en": "Hamrat ad Duru", "place": "village", "landuse": null, "population": null, "is_in": "Oman , عُمان", "source": null, "name:ar": "حمراء الدروع", "osm_id": 1716925673, "osm_type": "nodes" }, "geometry": { "type": "Point", "coordinates": [ 56.97, 22.75 ] } },
{ "type": "Feature", "properties": { "name": "الحجال", "name:en": "Al Hijal", "place": "village", "landuse": null, "population": null, "is_in": null, "source": null, "name:ar": "الحجال", "osm_id": 1721804313, "osm_type": "nodes" }, "geometry": { "type": "Point", "coordinates": [ 56.6298752, 23.4302074 ] } },
{ "type": "Feature", "properties": { "name": "منجرين", "name:en": "Manjurin", "place": "village", "landuse": null, "population": null, "is_in": null, "source": null, "name:ar": "منجرين", "osm_id": 1721807892, "osm_type": "nodes" }, "geometry": { "type": "Point", "coordinates": [ 56.63, 23.31 ] } },
{ "type": "Feature", "properties": { "name": "الراديدة", "name:en": "Ar Radidah", "place": "village", "landuse": null, "population": null, "is_in": null, "source": null, "name:ar": "الراديدة", "osm_id": 1721807676, "osm_type": "nodes" }, "geometry": { "type": "Point", "coordinates": [ 56.5199617, 23.2301397 ] } },
{ "type": "Feature", "properties": { "name": "المظهار", "name:en": "AL Modhar", "place": "village", "landuse": null, "population": null, "is_in": null, "source": null, "name:ar": null, "osm_id": 3812200358, "osm_type": "nodes" }, "geometry": { "type": "Point", "coordinates": [ 56.5052878, 23.2225378 ] } },
{ "type": "Feature", "properties": { "name": null, "name:en": null, "place": "hamlet", "landuse": null, "population": null, "is_in": null, "source": null, "name:ar": null, "osm_id": 4540254580, "osm_type": "nodes" }, "geometry": { "type": "Point", "coordinates": [ 58.6117851, 22.8059146 ] } },
{ "type": "Feature", "properties": { "name": null, "name:en": null, "place": "village", "landuse": null, "population": null, "is_in": null, "source": null, "name:ar": null, "osm_id": 2970870030, "osm_type": "nodes" }, "geometry": { "type": "Point", "coordinates": [ 58.5930553, 22.6236939 ] } },
{ "type": "Feature", "properties": { "name": "الجفرة", "name:en": null, "place": "village", "landuse": null, "population": null, "is_in": null, "source": null, "name:ar": "الجفرة", "osm_id": 5877015780, "osm_type": "nodes" }, "geometry": { "type": "Point", "coordinates": [ 56.4457218, 23.3177612 ] } },
{ "type": "Feature", "properties": { "name": "سيح المسرات", "name:en": null, "place": "village", "landuse": null, "population": null, "is_in": null, "source": null, "name:ar": "سيح المسرات", "osm_id": 5877015781, "osm_type": "nodes" }, "geometry": { "type": "Point", "coordinates": [ 56.3919703, 23.2641427 ] } },
{ "type": "Feature", "properties": { "name": "القطيفي", "name:en": null, "place": "village", "landuse": null, "population": "1400", "is_in": null, "source": null, "name:ar": null, "osm_id": 3719728037, "osm_type": "nodes" }, "geometry": { "type": "Point", "coordinates": [ 58.5110314, 22.9860276 ] } },
{ "type": "Feature", "properties": { "name": "عوف", "name:en": "Awf", "place": "village", "landuse": null, "population": "2000", "is_in": null, "source": null, "name:ar": "عوف", "osm_id": 1721734544, "osm_type": "nodes" }, "geometry": { "type": "Point", "coordinates": [ 58.49509, 22.9912205 ] } },
{ "type": "Feature", "properties": { "name": "مشارب", "name:en": "Masharib", "place": "village", "landuse": null, "population": null, "is_in": null, "source": null, "name:ar": "مشارب", "osm_id": 1721797607, "osm_type": "nodes" }, "geometry": { "type": "Point", "coordinates": [ 56.28, 23.42 ] } },
{ "type": "Feature", "properties": { "name": "غبرة تنوف", "name:en": "Ghubrat Tanuf", "place": "village", "landuse": null, "population": null, "is_in": null, "source": null, "name:ar": "غبرة تنوف", "osm_id": 1718133222, "osm_type": "nodes" }, "geometry": { "type": "Point", "coordinates": [ 57.41, 23.05 ] } },
{ "type": "Feature", "properties": { "name": "قاشة", "name:en": "Qashah", "place": "village", "landuse": null, "population": null, "is_in": null, "source": null, "name:ar": "قاشة", "osm_id": 1718133812, "osm_type": "nodes" }, "geometry": { "type": "Point", "coordinates": [ 57.51, 23.08 ] } },
{ "type": "Feature", "properties": { "name": "قناطر", "name:en": "Qanatir", "place": "village", "landuse": null, "population": null, "is_in": "Oman , عُمان", "source": null, "name:ar": "قناطر", "osm_id": 1721749721, "osm_type": "nodes" }, "geometry": { "type": "Point", "coordinates": [ 58.5375119, 22.6941753 ] } },
{ "type": "Feature", "properties": { "name": null, "name:en": null, "place": "village", "landuse": null, "population": null, "is_in": null, "source": null, "name:ar": null, "osm_id": 4540254814, "osm_type": "nodes" }, "geometry": { "type": "Point", "coordinates": [ 58.5238408, 22.8592415 ] } },
{ "type": "Feature", "properties": { "name": "القرية", "name:en": null, "place": "village", "landuse": null, "population": null, "is_in": null, "source": null, "name:ar": null, "osm_id": 3737248173, "osm_type": "nodes" }, "geometry": { "type": "Point", "coordinates": [ 58.5369132, 22.9825173 ] } },
{ "type": "Feature", "properties": { "name": "القرية", "name:en": "Al Qaryah", "place": "village", "landuse": null, "population": null, "is_in": null, "source": null, "name:ar": "القرية", "osm_id": 1721769556, "osm_type": "nodes" }, "geometry": { "type": "Point", "coordinates": [ 58.5358354, 22.9823315 ] } },
{ "type": "Feature", "properties": { "name": "الغمصة", "name:en": null, "place": "village", "landuse": null, "population": null, "is_in": null, "source": null, "name:ar": null, "osm_id": 3719728040, "osm_type": "nodes" }, "geometry": { "type": "Point", "coordinates": [ 58.5241839, 22.9796449 ] } },
{ "type": "Feature", "properties": { "name": "حي مرتفعات الفرفاره", "name:en": null, "place": "village", "landuse": null, "population": null, "is_in": null, "source": null, "name:ar": null, "osm_id": 8827204077, "osm_type": "nodes" }, "geometry": { "type": "Point", "coordinates": [ 58.0836902, 23.4129998 ] } },
{ "type": "Feature", "properties": { "name": "شويعي", "name:en": "Shuwayi", "place": "village", "landuse": null, "population": null, "is_in": null, "source": null, "name:ar": "شويعي", "osm_id": 1721999508, "osm_type": "nodes" }, "geometry": { "type": "Point", "coordinates": [ 58.1197143, 23.2401256 ] } },
{ "type": "Feature", "properties": { "name": "Al Nizar Village", "name:en": null, "place": "village", "landuse": null, "population": null, "is_in": null, "source": null, "name:ar": null, "osm_id": 3724228256, "osm_type": "nodes" }, "geometry": { "type": "Point", "coordinates": [ 57.7611975, 22.9280276 ] } },
{ "type": "Feature", "properties": { "name": "الظاهر", "name:en": "Ad Dhaher", "place": "village", "landuse": null, "population": null, "is_in": null, "source": null, "name:ar": null, "osm_id": 2396221680, "osm_type": "nodes" }, "geometry": { "type": "Point", "coordinates": [ 57.7664465, 22.9104916 ] } },
{ "type": "Feature", "properties": { "name": "وادي الحجر", "name:en": "Wadi AL Hajar", "place": "hamlet", "landuse": null, "population": null, "is_in": null, "source": null, "name:ar": "وادي الحجر", "osm_id": 1716935608, "osm_type": "nodes" }, "geometry": { "type": "Point", "coordinates": [ 57.7465172, 22.898815 ] } },
{ "type": "Feature", "properties": { "name": "المختبية", "name:en": "Al Mukhtobiyah", "place": "village", "landuse": null, "population": null, "is_in": null, "source": null, "name:ar": null, "osm_id": 3210306482, "osm_type": "nodes" }, "geometry": { "type": "Point", "coordinates": [ 56.4538241, 23.1487401 ] } },
{ "type": "Feature", "properties": { "name": "المعيدن", "name:en": "Muaydin", "place": "village", "landuse": null, "population": null, "is_in": null, "source": null, "name:ar": "معيدن", "osm_id": 1721748913, "osm_type": "nodes" }, "geometry": { "type": "Point", "coordinates": [ 57.6735019, 22.9914938 ] } },
{ "type": "Feature", "properties": { "name": "رسين", "name:en": "Rasin", "place": "village", "landuse": null, "population": null, "is_in": null, "source": null, "name:ar": "رسين", "osm_id": 1721748621, "osm_type": "nodes" }, "geometry": { "type": "Point", "coordinates": [ 57.7, 23.01 ] } },
{ "type": "Feature", "properties": { "name": "خضراء بني دفاع", "name:en": "Khadra Bin Daffa", "place": "village", "landuse": null, "population": null, "is_in": null, "source": null, "name:ar": "خضراء بن دفاع", "osm_id": 1716930490, "osm_type": "nodes" }, "geometry": { "type": "Point", "coordinates": [ 57.9964713, 22.8072931 ] } },
{ "type": "Feature", "properties": { "name": null, "name:en": null, "place": "village", "landuse": null, "population": null, "is_in": null, "source": null, "name:ar": null, "osm_id": 2970869061, "osm_type": "nodes" }, "geometry": { "type": "Point", "coordinates": [ 58.1865817, 22.4962444 ] } },
{ "type": "Feature", "properties": { "name": "أفلاج", "name:en": "Aflaj", "place": "village", "landuse": null, "population": null, "is_in": "Oman , عُمان", "source": null, "name:ar": "أفلاج", "osm_id": 1716912195, "osm_type": "nodes" }, "geometry": { "type": "Point", "coordinates": [ 58.2136991, 22.3847005 ] } },
{ "type": "Feature", "properties": { "name": "بليدة", "name:en": "Bulaydah", "place": "village", "landuse": null, "population": null, "is_in": "Oman , عُمان", "source": null, "name:ar": "بليدة", "osm_id": 1716923135, "osm_type": "nodes" }, "geometry": { "type": "Point", "coordinates": [ 58.2047256, 22.5534416 ] } },
{ "type": "Feature", "properties": { "name": "كبدية", "name:en": "Kibdiyah", "place": "village", "landuse": null, "population": null, "is_in": "Oman , عُمان", "source": null, "name:ar": "كبدية", "osm_id": 1720979373, "osm_type": "nodes" }, "geometry": { "type": "Point", "coordinates": [ 59.3106974, 22.6752879 ] } },
{ "type": "Feature", "properties": { "name": "السدافي", "name:en": "As Sidafi", "place": "village", "landuse": null, "population": null, "is_in": null, "source": null, "name:ar": "السدافي", "osm_id": 1721768557, "osm_type": "nodes" }, "geometry": { "type": "Point", "coordinates": [ 58.62, 23.05 ] } },
{ "type": "Feature", "properties": { "name": "أرحب", "name:en": null, "place": "village", "landuse": null, "population": null, "is_in": null, "source": null, "name:ar": "أرحب", "osm_id": 5877015774, "osm_type": "nodes" }, "geometry": { "type": "Point", "coordinates": [ 56.3129739, 23.315564 ] } },
{ "type": "Feature", "properties": { "name": "الصبيخي", "name:en": "As Subaykhah", "place": "village", "landuse": null, "population": null, "is_in": null, "source": null, "name:ar": "الصبيخي", "osm_id": 1721801242, "osm_type": "nodes" }, "geometry": { "type": "Point", "coordinates": [ 56.3234318, 23.3228879 ] } },
{ "type": "Feature", "properties": { "name": "فيقين", "name:en": "Fiqayn", "place": "village", "landuse": null, "population": null, "is_in": null, "source": null, "name:ar": "فيقين", "osm_id": 1716923958, "osm_type": "nodes" }, "geometry": { "type": "Point", "coordinates": [ 57.61, 22.8 ] } },
{ "type": "Feature", "properties": { "name": "مزارع الرسيس", "name:en": "Mazare Ar Rusais", "place": "village", "landuse": null, "population": null, "is_in": null, "source": null, "name:ar": "مزارع الرسيس", "osm_id": 1716932488, "osm_type": "nodes" }, "geometry": { "type": "Point", "coordinates": [ 57.7607274, 22.879976 ] } },
{ "type": "Feature", "properties": { "name": "سوق قديم", "name:en": null, "place": "village", "landuse": null, "population": null, "is_in": null, "source": null, "name:ar": null, "osm_id": 2712658723, "osm_type": "nodes" }, "geometry": { "type": "Point", "coordinates": [ 57.7549342, 22.8298909 ] } },
{ "type": "Feature", "properties": { "name": "الجاهلي", "name:en": "Al Jahli", "place": "village", "landuse": null, "population": null, "is_in": null, "source": null, "name:ar": null, "osm_id": 3260432361, "osm_type": "nodes" }, "geometry": { "type": "Point", "coordinates": [ 56.4472274, 23.2234634 ] } },
{ "type": "Feature", "properties": { "name": "محبوب", "name:en": "Mahbub", "place": "village", "landuse": null, "population": null, "is_in": null, "source": null, "name:ar": "محبوب", "osm_id": 1722028083, "osm_type": "nodes" }, "geometry": { "type": "Point", "coordinates": [ 58.0199655, 23.3198988 ] } },
{ "type": "Feature", "properties": { "name": "السديرة", "name:en": "As Sudayrah", "place": "village", "landuse": null, "population": null, "is_in": "Oman , عُمان", "source": null, "name:ar": "السديرة", "osm_id": 1721749129, "osm_type": "nodes" }, "geometry": { "type": "Point", "coordinates": [ 58.0154039, 22.5798632 ] } },
{ "type": "Feature", "properties": { "name": "بويتن", "name:en": "Buwaytin", "place": "village", "landuse": null, "population": null, "is_in": "Oman , عُمان", "source": null, "name:ar": "بويتن", "osm_id": 1716923217, "osm_type": "nodes" }, "geometry": { "type": "Point", "coordinates": [ 58.04, 22.6186333 ] } },
{ "type": "Feature", "properties": { "name": "وفي", "name:en": "Wafi", "place": "village", "landuse": null, "population": null, "is_in": "Oman , عُمان", "source": null, "name:ar": "وفي", "osm_id": 1716937484, "osm_type": "nodes" }, "geometry": { "type": "Point", "coordinates": [ 58.0006759, 22.6202674 ] } },
{ "type": "Feature", "properties": { "name": "واسط", "name:en": "Wasit", "place": "village", "landuse": null, "population": null, "is_in": "Oman , عُمان", "source": null, "name:ar": "واسط", "osm_id": 1716913520, "osm_type": "nodes" }, "geometry": { "type": "Point", "coordinates": [ 58.0208704, 22.4490549 ] } },
{ "type": "Feature", "properties": { "name": "الشرية", "name:en": "Shurayjah", "place": "village", "landuse": null, "population": null, "is_in": "Oman , عُمان", "source": null, "name:ar": "شريجة", "osm_id": 1716933751, "osm_type": "nodes" }, "geometry": { "type": "Point", "coordinates": [ 59.5100427, 22.5800575 ] } },
{ "type": "Feature", "properties": { "name": "شافع", "name:en": "Shafa", "place": "village", "landuse": null, "population": null, "is_in": "Oman , عُمان", "source": null, "name:ar": "شافع", "osm_id": 1721748918, "osm_type": "nodes" }, "geometry": { "type": "Point", "coordinates": [ 57.7607811, 22.7621634 ] } },
{ "type": "Feature", "properties": { "name": "الحليو", "name:en": "AL HELEW", "place": "village", "landuse": null, "population": null, "is_in": "Oman , عُمان", "source": null, "name:ar": "الحليو", "osm_id": 1716920355, "osm_type": "nodes" }, "geometry": { "type": "Point", "coordinates": [ 57.8226747, 22.7842466 ] } },
{ "type": "Feature", "properties": { "name": "شوفي", "name:en": "Shufi", "place": "village", "landuse": null, "population": null, "is_in": "Oman , عُمان", "source": null, "name:ar": "شوفي", "osm_id": 1716933708, "osm_type": "nodes" }, "geometry": { "type": "Point", "coordinates": [ 59.2879262, 22.641985 ] } },
{ "type": "Feature", "properties": { "name": "الطويان", "name:en": null, "place": "village", "landuse": null, "population": null, "is_in": null, "source": null, "name:ar": "الطويان", "osm_id": 5877106863, "osm_type": "nodes" }, "geometry": { "type": "Point", "coordinates": [ 59.497373, 22.2343457 ] } },
{ "type": "Feature", "properties": { "name": null, "name:en": null, "place": "village", "landuse": null, "population": null, "is_in": null, "source": null, "name:ar": null, "osm_id": 2970868928, "osm_type": "nodes" }, "geometry": { "type": "Point", "coordinates": [ 58.2392418, 22.4979049 ] } },
{ "type": "Feature", "properties": { "name": "الحارة", "name:en": null, "place": "village", "landuse": null, "population": null, "is_in": null, "source": null, "name:ar": null, "osm_id": 3737251995, "osm_type": "nodes" }, "geometry": { "type": "Point", "coordinates": [ 58.555989, 22.9746746 ] } },
{ "type": "Feature", "properties": { "name": null, "name:en": null, "place": "village", "landuse": null, "population": null, "is_in": null, "source": null, "name:ar": null, "osm_id": 2970866114, "osm_type": "nodes" }, "geometry": { "type": "Point", "coordinates": [ 58.3918935, 22.5817023 ] } },
{ "type": "Feature", "properties": { "name": null, "name:en": null, "place": "hamlet", "landuse": null, "population": null, "is_in": null, "source": null, "name:ar": null, "osm_id": 5234476010, "osm_type": "nodes" }, "geometry": { "type": "Point", "coordinates": [ 58.9713232, 23.0483244 ] } },
{ "type": "Feature", "properties": { "name": null, "name:en": null, "place": "hamlet", "landuse": null, "population": null, "is_in": null, "source": null, "name:ar": null, "osm_id": 4577154342, "osm_type": "nodes" }, "geometry": { "type": "Point", "coordinates": [ 58.9823455, 23.0448355 ] } },
{ "type": "Feature", "properties": { "name": "السويح", "name:en": null, "place": "hamlet", "landuse": null, "population": null, "is_in": null, "source": null, "name:ar": null, "osm_id": 3731922866, "osm_type": "nodes" }, "geometry": { "type": "Point", "coordinates": [ 58.9911567, 23.0324842 ] } },
{ "type": "Feature", "properties": { "name": null, "name:en": null, "place": "hamlet", "landuse": null, "population": null, "is_in": null, "source": null, "name:ar": null, "osm_id": 4587357486, "osm_type": "nodes" }, "geometry": { "type": "Point", "coordinates": [ 58.9484704, 22.7174908 ] } },
{ "type": "Feature", "properties": { "name": null, "name:en": null, "place": "hamlet", "landuse": null, "population": null, "is_in": null, "source": null, "name:ar": null, "osm_id": 4540320995, "osm_type": "nodes" }, "geometry": { "type": "Point", "coordinates": [ 59.1659904, 22.8721845 ] } },
{ "type": "Feature", "properties": { "name": "يستين", "name:en": "Yistin", "place": "village", "landuse": null, "population": null, "is_in": "Oman , عُمان", "source": null, "name:ar": "يستين", "osm_id": 1716937620, "osm_type": "nodes" }, "geometry": { "type": "Point", "coordinates": [ 59.1769002, 22.415665 ] } },
{ "type": "Feature", "properties": { "name": "محيدث", "name:en": "Muhaydith", "place": "village", "landuse": null, "population": null, "is_in": null, "source": null, "name:ar": "محيدث", "osm_id": 1720806641, "osm_type": "nodes" }, "geometry": { "type": "Point", "coordinates": [ 58.5914162, 23.3292316 ] } },
{ "type": "Feature", "properties": { "name": "سعدي", "name:en": "Saadi", "place": "village", "landuse": null, "population": null, "is_in": null, "source": null, "name:ar": "سعدي", "osm_id": 1720806652, "osm_type": "nodes" }, "geometry": { "type": "Point", "coordinates": [ 58.58, 23.33 ] } },
{ "type": "Feature", "properties": { "name": null, "name:en": null, "place": "hamlet", "landuse": null, "population": null, "is_in": null, "source": null, "name:ar": null, "osm_id": 4539907409, "osm_type": "nodes" }, "geometry": { "type": "Point", "coordinates": [ 59.0962707, 22.8236932 ] } },
{ "type": "Feature", "properties": { "name": "الباطن", "name:en": "Al Batin", "place": "village", "landuse": null, "population": null, "is_in": "Oman , عُمان", "source": null, "name:ar": "الباطن", "osm_id": 1716920028, "osm_type": "nodes" }, "geometry": { "type": "Point", "coordinates": [ 59.1078515, 22.4711806 ] } },
{ "type": "Feature", "properties": { "name": "القحم", "name:en": null, "place": "village", "landuse": null, "population": null, "is_in": null, "source": null, "name:ar": null, "osm_id": 3744583021, "osm_type": "nodes" }, "geometry": { "type": "Point", "coordinates": [ 58.9964891, 22.546527 ] } },
{ "type": "Feature", "properties": { "name": null, "name:en": null, "place": "hamlet", "landuse": null, "population": null, "is_in": null, "source": null, "name:ar": null, "osm_id": 5259410787, "osm_type": "nodes" }, "geometry": { "type": "Point", "coordinates": [ 58.9720294, 22.5786694 ] } },
{ "type": "Feature", "properties": { "name": "شاحك", "name:en": "Shahiq", "place": "village", "landuse": null, "population": null, "is_in": "Oman , عُمان", "source": null, "name:ar": "شاهق", "osm_id": 1720967117, "osm_type": "nodes" }, "geometry": { "type": "Point", "coordinates": [ 58.7800009, 22.4300024 ] } },
{ "type": "Feature", "properties": { "name": "الغبي", "name:en": "Al Ghabbi", "place": "village", "landuse": null, "population": null, "is_in": "Oman , عُمان", "source": null, "name:ar": "الغبي", "osm_id": 1720966864, "osm_type": "nodes" }, "geometry": { "type": "Point", "coordinates": [ 58.8102182, 22.4499132 ] } },
{ "type": "Feature", "properties": { "name": null, "name:en": null, "place": "hamlet", "landuse": null, "population": null, "is_in": null, "source": null, "name:ar": null, "osm_id": 5259410806, "osm_type": "nodes" }, "geometry": { "type": "Point", "coordinates": [ 58.708452, 22.7524899 ] } },
{ "type": "Feature", "properties": { "name": null, "name:en": null, "place": "hamlet", "landuse": null, "population": null, "is_in": null, "source": null, "name:ar": null, "osm_id": 5259427278, "osm_type": "nodes" }, "geometry": { "type": "Point", "coordinates": [ 58.8411462, 22.7819906 ] } },
{ "type": "Feature", "properties": { "name": null, "name:en": null, "place": "village", "landuse": null, "population": null, "is_in": null, "source": null, "name:ar": null, "osm_id": 4540321021, "osm_type": "nodes" }, "geometry": { "type": "Point", "coordinates": [ 59.0399051, 22.846955 ] } },
{ "type": "Feature", "properties": { "name": null, "name:en": null, "place": "village", "landuse": null, "population": null, "is_in": null, "source": null, "name:ar": null, "osm_id": 2441305294, "osm_type": "nodes" }, "geometry": { "type": "Point", "coordinates": [ 58.9697745, 22.8326529 ] } },
{ "type": "Feature", "properties": { "name": null, "name:en": null, "place": "hamlet", "landuse": null, "population": null, "is_in": null, "source": null, "name:ar": null, "osm_id": 4400922753, "osm_type": "nodes" }, "geometry": { "type": "Point", "coordinates": [ 58.9544824, 22.8888325 ] } },
{ "type": "Feature", "properties": { "name": null, "name:en": null, "place": "hamlet", "landuse": null, "population": null, "is_in": null, "source": null, "name:ar": null, "osm_id": 4539908088, "osm_type": "nodes" }, "geometry": { "type": "Point", "coordinates": [ 58.9955913, 22.8785897 ] } },
{ "type": "Feature", "properties": { "name": null, "name:en": null, "place": "hamlet", "landuse": null, "population": null, "is_in": null, "source": null, "name:ar": null, "osm_id": 4400922752, "osm_type": "nodes" }, "geometry": { "type": "Point", "coordinates": [ 58.9639307, 22.9001134 ] } },
{ "type": "Feature", "properties": { "name": "حارة", "name:en": "Harrah", "place": "village", "landuse": null, "population": null, "is_in": null, "source": null, "name:ar": "حارة", "osm_id": 1721769638, "osm_type": "nodes" }, "geometry": { "type": "Point", "coordinates": [ 58.5555132, 22.974774 ] } },
{ "type": "Feature", "properties": { "name": "سمان", "name:en": "Saman", "place": "village", "landuse": null, "population": null, "is_in": null, "source": null, "name:ar": "سمان", "osm_id": 1721769801, "osm_type": "nodes" }, "geometry": { "type": "Point", "coordinates": [ 58.56, 22.99 ] } },
{ "type": "Feature", "properties": { "name": "سموت", "name:en": "Samoot", "place": "village", "landuse": null, "population": null, "is_in": null, "source": null, "name:ar": "سموت", "osm_id": 1721769842, "osm_type": "nodes" }, "geometry": { "type": "Point", "coordinates": [ 58.5604399, 22.9708112 ] } },
{ "type": "Feature", "properties": { "name": null, "name:en": null, "place": "hamlet", "landuse": null, "population": null, "is_in": null, "source": null, "name:ar": null, "osm_id": 5210013692, "osm_type": "nodes" }, "geometry": { "type": "Point", "coordinates": [ 59.3136847, 22.7434841 ] } },
{ "type": "Feature", "properties": { "name": null, "name:en": null, "place": "hamlet", "landuse": null, "population": null, "is_in": null, "source": null, "name:ar": null, "osm_id": 4589731893, "osm_type": "nodes" }, "geometry": { "type": "Point", "coordinates": [ 58.9081183, 23.1074262 ] } },
{ "type": "Feature", "properties": { "name": null, "name:en": null, "place": "hamlet", "landuse": null, "population": null, "is_in": null, "source": null, "name:ar": null, "osm_id": 5241708255, "osm_type": "nodes" }, "geometry": { "type": "Point", "coordinates": [ 59.2961755, 22.6353795 ] } },
{ "type": "Feature", "properties": { "name": null, "name:en": null, "place": "hamlet", "landuse": null, "population": null, "is_in": null, "source": null, "name:ar": null, "osm_id": 4539954766, "osm_type": "nodes" }, "geometry": { "type": "Point", "coordinates": [ 59.0307711, 22.7659798 ] } },
{ "type": "Feature", "properties": { "name": null, "name:en": null, "place": "hamlet", "landuse": null, "population": null, "is_in": null, "source": null, "name:ar": null, "osm_id": 5259410789, "osm_type": "nodes" }, "geometry": { "type": "Point", "coordinates": [ 58.9410445, 22.6828504 ] } },
{ "type": "Feature", "properties": { "name": null, "name:en": null, "place": "village", "landuse": null, "population": null, "is_in": null, "source": null, "name:ar": null, "osm_id": 5259410816, "osm_type": "nodes" }, "geometry": { "type": "Point", "coordinates": [ 58.9725508, 22.6908169 ] } },
{ "type": "Feature", "properties": { "name": "قفيفة", "name:en": null, "place": "village", "landuse": null, "population": null, "is_in": null, "source": null, "name:ar": null, "osm_id": 3737012623, "osm_type": "nodes" }, "geometry": { "type": "Point", "coordinates": [ 58.424439, 22.9006604 ] } },
{ "type": "Feature", "properties": { "name": "الخفيقي", "name:en": "Al Khufayqi", "place": "village", "landuse": null, "population": null, "is_in": null, "source": null, "name:ar": "الخفيقي", "osm_id": 1720810112, "osm_type": "nodes" }, "geometry": { "type": "Point", "coordinates": [ 58.5196691, 23.3994685 ] } },
{ "type": "Feature", "properties": { "name": "الخب", "name:en": null, "place": "village", "landuse": null, "population": null, "is_in": null, "source": null, "name:ar": "الخب", "osm_id": 5652779123, "osm_type": "nodes" }, "geometry": { "type": "Point", "coordinates": [ 55.8790227, 23.909913 ] } },
{ "type": "Feature", "properties": { "name": "Al Mays - الميس", "name:en": "Al Mays", "place": "village", "landuse": null, "population": null, "is_in": null, "source": "https://www.mindat.org/feature-289163.html", "name:ar": "الميس", "osm_id": 1721772252, "osm_type": "nodes" }, "geometry": { "type": "Point", "coordinates": [ 56.9149646, 23.136573 ] } },
{ "type": "Feature", "properties": { "name": "ريمي", "name:en": "Rimi", "place": "village", "landuse": null, "population": null, "is_in": null, "source": null, "name:ar": "ريمي", "osm_id": 1721813338, "osm_type": "nodes" }, "geometry": { "type": "Point", "coordinates": [ 56.96, 23.38 ] } },
{ "type": "Feature", "properties": { "name": "مزرع", "name:en": "Mazra", "place": "village", "landuse": null, "population": null, "is_in": null, "source": null, "name:ar": "مزرع", "osm_id": 1721769754, "osm_type": "nodes" }, "geometry": { "type": "Point", "coordinates": [ 58.5710379, 23.0771851 ] } },
{ "type": "Feature", "properties": { "name": "شرية", "name:en": "Sharyah", "place": "village", "landuse": null, "population": null, "is_in": "Oman , عُمان", "source": null, "name:ar": "شرية", "osm_id": 1718024236, "osm_type": "nodes" }, "geometry": { "type": "Point", "coordinates": [ 56.4000792, 26.278206 ] } },
{ "type": "Feature", "properties": { "name": "صناعية السويق", "name:en": null, "place": "village", "landuse": null, "population": null, "is_in": null, "source": null, "name:ar": null, "osm_id": 8691887379, "osm_type": "nodes" }, "geometry": { "type": "Point", "coordinates": [ 57.4245328, 23.7865093 ] } },
{ "type": "Feature", "properties": { "name": "مشايق", "name:en": "Mushayq", "place": "village", "landuse": null, "population": null, "is_in": null, "source": null, "name:ar": null, "osm_id": 1721858805, "osm_type": "nodes" }, "geometry": { "type": "Point", "coordinates": [ 57.16, 23.8 ] } },
{ "type": "Feature", "properties": { "name": null, "name:en": null, "place": "village", "landuse": null, "population": null, "is_in": null, "source": null, "name:ar": null, "osm_id": 2383571703, "osm_type": "nodes" }, "geometry": { "type": "Point", "coordinates": [ 57.0887772, 23.8191459 ] } },
{ "type": "Feature", "properties": { "name": "المعترد", "name:en": "Al Mutarid", "place": "village", "landuse": null, "population": null, "is_in": "Oman , عُمان", "source": null, "name:ar": "المعترد", "osm_id": 1721749452, "osm_type": "nodes" }, "geometry": { "type": "Point", "coordinates": [ 58.6532187, 22.7236022 ] } },
{ "type": "Feature", "properties": { "name": "الصرم", "name:en": "As Sarm", "place": "village", "landuse": null, "population": null, "is_in": "Oman , عُمان", "source": null, "name:ar": "السرم", "osm_id": 1716921300, "osm_type": "nodes" }, "geometry": { "type": "Point", "coordinates": [ 58.66, 22.76 ] } },
{ "type": "Feature", "properties": { "name": "قصي", "name:en": null, "place": "village", "landuse": null, "population": null, "is_in": null, "source": null, "name:ar": null, "osm_id": 3865048888, "osm_type": "nodes" }, "geometry": { "type": "Point", "coordinates": [ 56.7725463, 23.7087484 ] } },
{ "type": "Feature", "properties": { "name": "غضيا", "name:en": "Ghadhiya", "place": "village", "landuse": null, "population": null, "is_in": null, "source": null, "name:ar": "غضيا", "osm_id": 1721788929, "osm_type": "nodes" }, "geometry": { "type": "Point", "coordinates": [ 56.371138, 23.6670774 ] } },
{ "type": "Feature", "properties": { "name": "البحيصة", "name:en": null, "place": "village", "landuse": null, "population": null, "is_in": null, "source": null, "name:ar": "البحيصة", "osm_id": 5877015770, "osm_type": "nodes" }, "geometry": { "type": "Point", "coordinates": [ 55.9251908, 23.6466239 ] } },
{ "type": "Feature", "properties": { "name": null, "name:en": null, "place": "village", "landuse": null, "population": null, "is_in": null, "source": null, "name:ar": null, "osm_id": 2424765444, "osm_type": "nodes" }, "geometry": { "type": "Point", "coordinates": [ 56.3675289, 23.8422168 ] } },
{ "type": "Feature", "properties": { "name": null, "name:en": "Seih al breir", "place": "village", "landuse": null, "population": null, "is_in": null, "source": null, "name:ar": null, "osm_id": 6268957954, "osm_type": "nodes" }, "geometry": { "type": "Point", "coordinates": [ 56.5088204, 23.979396 ] } },
{ "type": "Feature", "properties": { "name": "قبييات", "name:en": "Qubiyat", "place": "village", "landuse": null, "population": null, "is_in": null, "source": null, "name:ar": "كبيات", "osm_id": 1720833548, "osm_type": "nodes" }, "geometry": { "type": "Point", "coordinates": [ 56.5638807, 23.9387399 ] } },
{ "type": "Feature", "properties": { "name": "الظويهر", "name:en": "Az Zuwayhir", "place": "village", "landuse": null, "population": null, "is_in": null, "source": null, "name:ar": "الظويهر", "osm_id": 1719521429, "osm_type": "nodes" }, "geometry": { "type": "Point", "coordinates": [ 56.71, 23.92 ] } },
{ "type": "Feature", "properties": { "name": null, "name:en": null, "place": "hamlet", "landuse": null, "population": null, "is_in": null, "source": null, "name:ar": null, "osm_id": 2318866499, "osm_type": "nodes" }, "geometry": { "type": "Point", "coordinates": [ 56.2829218, 23.9359466 ] } },
{ "type": "Feature", "properties": { "name": null, "name:en": null, "place": "village", "landuse": null, "population": null, "is_in": null, "source": null, "name:ar": null, "osm_id": 2529669320, "osm_type": "nodes" }, "geometry": { "type": "Point", "coordinates": [ 56.4381411, 23.9564281 ] } },
{ "type": "Feature", "properties": { "name": null, "name:en": null, "place": "village", "landuse": null, "population": null, "is_in": null, "source": null, "name:ar": null, "osm_id": 2318924897, "osm_type": "nodes" }, "geometry": { "type": "Point", "coordinates": [ 56.8415896, 23.7996143 ] } },
{ "type": "Feature", "properties": { "name": "البسيتين", "name:en": null, "place": "village", "landuse": null, "population": null, "is_in": null, "source": null, "name:ar": null, "osm_id": 2318924690, "osm_type": "nodes" }, "geometry": { "type": "Point", "coordinates": [ 56.8870057, 23.7959391 ] } },
{ "type": "Feature", "properties": { "name": "الرويضات", "name:en": null, "place": "village", "landuse": null, "population": null, "is_in": null, "source": null, "name:ar": null, "osm_id": 3123022918, "osm_type": "nodes" }, "geometry": { "type": "Point", "coordinates": [ 56.9546731, 23.8367248 ] } },
{ "type": "Feature", "properties": { "name": "مرتفعات البريك", "name:en": null, "place": "village", "landuse": null, "population": null, "is_in": null, "source": null, "name:ar": null, "osm_id": 3905818994, "osm_type": "nodes" }, "geometry": { "type": "Point", "coordinates": [ 57.1185676, 23.9362356 ] } },
{ "type": "Feature", "properties": { "name": "العوان", "name:en": null, "place": "village", "landuse": null, "population": null, "is_in": null, "source": null, "name:ar": null, "osm_id": 3905818985, "osm_type": "nodes" }, "geometry": { "type": "Point", "coordinates": [ 57.1355072, 23.9383286 ] } },
{ "type": "Feature", "properties": { "name": "مرتفعات الخابورة", "name:en": null, "place": "village", "landuse": null, "population": null, "is_in": null, "source": null, "name:ar": null, "osm_id": 3123033180, "osm_type": "nodes" }, "geometry": { "type": "Point", "coordinates": [ 57.0949161, 23.9590879 ] } },
{ "type": "Feature", "properties": { "name": null, "name:en": null, "place": "hamlet", "landuse": null, "population": null, "is_in": null, "source": null, "name:ar": null, "osm_id": 2517848530, "osm_type": "nodes" }, "geometry": { "type": "Point", "coordinates": [ 57.0578545, 23.7321253 ] } },
{ "type": "Feature", "properties": { "name": "الأفراض", "name:en": "Al Afrad", "place": "village", "landuse": null, "population": null, "is_in": null, "source": null, "name:ar": null, "osm_id": 1721009003, "osm_type": "nodes" }, "geometry": { "type": "Point", "coordinates": [ 57.4485242, 23.8298364 ] } },
{ "type": "Feature", "properties": { "name": null, "name:en": null, "place": "village", "landuse": null, "population": null, "is_in": null, "source": null, "name:ar": null, "osm_id": 2424763843, "osm_type": "nodes" }, "geometry": { "type": "Point", "coordinates": [ 56.3970469, 23.8118359 ] } },
{ "type": "Feature", "properties": { "name": "سوري", "name:en": "Suri", "place": "village", "landuse": null, "population": null, "is_in": null, "source": null, "name:ar": "سوري", "osm_id": 1721793417, "osm_type": "nodes" }, "geometry": { "type": "Point", "coordinates": [ 56.96, 23.62 ] } },
{ "type": "Feature", "properties": { "name": null, "name:en": null, "place": "village", "landuse": null, "population": null, "is_in": null, "source": null, "name:ar": null, "osm_id": 2536161242, "osm_type": "nodes" }, "geometry": { "type": "Point", "coordinates": [ 56.8611658, 23.6179997 ] } },
{ "type": "Feature", "properties": { "name": "الدعثور", "name:en": null, "place": "village", "landuse": null, "population": null, "is_in": null, "source": null, "name:ar": "الدعثور", "osm_id": 5877015771, "osm_type": "nodes" }, "geometry": { "type": "Point", "coordinates": [ 55.9665827, 23.6312914 ] } },
{ "type": "Feature", "properties": { "name": null, "name:en": null, "place": "village", "landuse": null, "population": null, "is_in": null, "source": null, "name:ar": null, "osm_id": 2424728790, "osm_type": "nodes" }, "geometry": { "type": "Point", "coordinates": [ 56.2002297, 23.7623738 ] } },
{ "type": "Feature", "properties": { "name": "قبة", "name:en": "Qibah", "place": "village", "landuse": null, "population": null, "is_in": null, "source": null, "name:ar": "قبة", "osm_id": 1718142345, "osm_type": "nodes" }, "geometry": { "type": "Point", "coordinates": [ 58.0835163, 23.0537435 ] } },
{ "type": "Feature", "properties": { "name": "Ghashab al Khanazirah", "name:en": "Ghashab al Khanazirah", "place": "hamlet", "landuse": null, "population": null, "is_in": null, "source": "https://www.mindat.org/feature-11773415.html", "name:ar": null, "osm_id": 11703341662, "osm_type": "nodes" }, "geometry": { "type": "Point", "coordinates": [ 56.2506445, 25.9674667 ] } },
{ "type": "Feature", "properties": { "name": "سور آل قطيط", "name:en": null, "place": "village", "landuse": null, "population": null, "is_in": null, "source": null, "name:ar": null, "osm_id": 3905818997, "osm_type": "nodes" }, "geometry": { "type": "Point", "coordinates": [ 57.111081, 23.9515357 ] } },
{ "type": "Feature", "properties": { "name": "الخلوف", "name:en": "Khalouf", "place": "village", "landuse": null, "population": null, "is_in": "Oman , عُمان", "source": null, "name:ar": "الخَلُّوف", "osm_id": 1716906809, "osm_type": "nodes" }, "geometry": { "type": "Point", "coordinates": [ 58.0610093, 20.4711798 ] } },
{ "type": "Feature", "properties": { "name": "حلة الحصن", "name:en": null, "place": "village", "landuse": null, "population": null, "is_in": null, "source": null, "name:ar": null, "osm_id": 3892910844, "osm_type": "nodes" }, "geometry": { "type": "Point", "coordinates": [ 57.1063034, 23.9818811 ] } },
{ "type": "Feature", "properties": { "name": "السهيلة", "name:en": null, "place": "village", "landuse": null, "population": null, "is_in": null, "source": null, "name:ar": null, "osm_id": 2536161852, "osm_type": "nodes" }, "geometry": { "type": "Point", "coordinates": [ 56.9545316, 23.9733997 ] } },
{ "type": "Feature", "properties": { "name": "Aktam - أكتم", "name:en": "Aktam", "place": "village", "landuse": null, "population": null, "is_in": null, "source": "https://www.mindat.org/feature-289389.html", "name:ar": "كتم", "osm_id": 1721790732, "osm_type": "nodes" }, "geometry": { "type": "Point", "coordinates": [ 56.5634782, 23.8964059 ] } },
{ "type": "Feature", "properties": { "name": "سبيب", "name:en": "Subayb", "place": "village", "landuse": null, "population": null, "is_in": null, "source": null, "name:ar": "سبيب", "osm_id": 1721813740, "osm_type": "nodes" }, "geometry": { "type": "Point", "coordinates": [ 57.15, 23.22 ] } },
{ "type": "Feature", "properties": { "name": null, "name:en": null, "place": "hamlet", "landuse": null, "population": null, "is_in": null, "source": null, "name:ar": null, "osm_id": 4539954715, "osm_type": "nodes" }, "geometry": { "type": "Point", "coordinates": [ 59.0943663, 22.75296 ] } },
{ "type": "Feature", "properties": { "name": null, "name:en": null, "place": "hamlet", "landuse": null, "population": null, "is_in": null, "source": null, "name:ar": null, "osm_id": 5242308735, "osm_type": "nodes" }, "geometry": { "type": "Point", "coordinates": [ 59.0868066, 22.6369445 ] } },
{ "type": "Feature", "properties": { "name": null, "name:en": null, "place": "hamlet", "landuse": null, "population": null, "is_in": null, "source": null, "name:ar": null, "osm_id": 4543781177, "osm_type": "nodes" }, "geometry": { "type": "Point", "coordinates": [ 59.0797374, 22.655774 ] } },
{ "type": "Feature", "properties": { "name": null, "name:en": null, "place": "village", "landuse": null, "population": null, "is_in": null, "source": null, "name:ar": null, "osm_id": 2450950951, "osm_type": "nodes" }, "geometry": { "type": "Point", "coordinates": [ 59.2126209, 22.7273786 ] } },
{ "type": "Feature", "properties": { "name": "مسلف", "name:en": "Muslaf", "place": "village", "landuse": null, "population": null, "is_in": null, "source": null, "name:ar": "مسلف", "osm_id": 1719455291, "osm_type": "nodes" }, "geometry": { "type": "Point", "coordinates": [ 56.29, 24.7 ] } },
{ "type": "Feature", "properties": { "name": "السلمي", "name:en": "Silmi", "place": "village", "landuse": null, "population": null, "is_in": null, "source": null, "name:ar": "سلمي", "osm_id": 1721807916, "osm_type": "nodes" }, "geometry": { "type": "Point", "coordinates": [ 56.5100584, 23.2499834 ] } },
{ "type": "Feature", "properties": { "name": "الواسط", "name:en": null, "place": "village", "landuse": null, "population": null, "is_in": null, "source": null, "name:ar": null, "osm_id": 3892914749, "osm_type": "nodes" }, "geometry": { "type": "Point", "coordinates": [ 57.1011745, 23.9862767 ] } },
{ "type": "Feature", "properties": { "name": "سور الدواحنة", "name:en": null, "place": "village", "landuse": null, "population": null, "is_in": null, "source": null, "name:ar": null, "osm_id": 3892913761, "osm_type": "nodes" }, "geometry": { "type": "Point", "coordinates": [ 57.0820733, 23.9841008 ] } },
{ "type": "Feature", "properties": { "name": null, "name:en": null, "place": "village", "landuse": null, "population": null, "is_in": null, "source": null, "name:ar": null, "osm_id": 2318879719, "osm_type": "nodes" }, "geometry": { "type": "Point", "coordinates": [ 56.6412371, 23.7832622 ] } },
{ "type": "Feature", "properties": { "name": null, "name:en": null, "place": "hamlet", "landuse": null, "population": null, "is_in": null, "source": null, "name:ar": null, "osm_id": 2430189512, "osm_type": "nodes" }, "geometry": { "type": "Point", "coordinates": [ 56.6812298, 23.785646 ] } },
{ "type": "Feature", "properties": { "name": "Deira Al Ghayl", "name:en": "Deira Al Ghayl", "place": "hamlet", "landuse": null, "population": null, "is_in": null, "source": null, "name:ar": "ديره الغيل", "osm_id": 11648965954, "osm_type": "nodes" }, "geometry": { "type": "Point", "coordinates": [ 56.1352669, 25.7727405 ] } },
{ "type": "Feature", "properties": { "name": "العقر", "name:en": null, "place": "village", "landuse": null, "population": null, "is_in": null, "source": null, "name:ar": null, "osm_id": 3744582994, "osm_type": "nodes" }, "geometry": { "type": "Point", "coordinates": [ 59.0852221, 22.6023464 ] } },
{ "type": "Feature", "properties": { "name": "الحجرة", "name:en": null, "place": "village", "landuse": null, "population": null, "is_in": null, "source": null, "name:ar": null, "osm_id": 3744582996, "osm_type": "nodes" }, "geometry": { "type": "Point", "coordinates": [ 59.0838697, 22.5992823 ] } },
{ "type": "Feature", "properties": { "name": null, "name:en": null, "place": "hamlet", "landuse": null, "population": null, "is_in": null, "source": null, "name:ar": null, "osm_id": 5239900433, "osm_type": "nodes" }, "geometry": { "type": "Point", "coordinates": [ 59.0892068, 22.6243619 ] } },
{ "type": "Feature", "properties": { "name": "العابية", "name:en": "Al Qahm", "place": "village", "landuse": null, "population": null, "is_in": null, "source": null, "name:ar": null, "osm_id": 3744583020, "osm_type": "nodes" }, "geometry": { "type": "Point", "coordinates": [ 59.0312245, 22.5737387 ] } },
{ "type": "Feature", "properties": { "name": null, "name:en": null, "place": "village", "landuse": null, "population": null, "is_in": null, "source": null, "name:ar": null, "osm_id": 2450948861, "osm_type": "nodes" }, "geometry": { "type": "Point", "coordinates": [ 59.2210378, 22.6552892 ] } },
{ "type": "Feature", "properties": { "name": null, "name:en": null, "place": "hamlet", "landuse": null, "population": null, "is_in": null, "source": null, "name:ar": null, "osm_id": 2806158243, "osm_type": "nodes" }, "geometry": { "type": "Point", "coordinates": [ 59.1705666, 22.5023479 ] } },
{ "type": "Feature", "properties": { "name": "عسيبق", "name:en": "Usaybuq", "place": "village", "landuse": null, "population": null, "is_in": null, "source": null, "name:ar": null, "osm_id": 3260420538, "osm_type": "nodes" }, "geometry": { "type": "Point", "coordinates": [ 56.4651876, 23.2295332 ] } },
{ "type": "Feature", "properties": { "name": "بلاد", "name:en": "Bilad", "place": "village", "landuse": null, "population": null, "is_in": "Oman , عُمان", "source": null, "name:ar": "البلاد", "osm_id": 1720779858, "osm_type": "nodes" }, "geometry": { "type": "Point", "coordinates": [ 58.9802114, 23.1904295 ] } },
{ "type": "Feature", "properties": { "name": "المهادن", "name:en": "Al Mahadin", "place": "village", "landuse": null, "population": null, "is_in": "Oman , عُمان", "source": null, "name:ar": "مهادن", "osm_id": 1720798638, "osm_type": "nodes" }, "geometry": { "type": "Point", "coordinates": [ 58.990356, 23.2001736 ] } },
{ "type": "Feature", "properties": { "name": null, "name:en": null, "place": "hamlet", "landuse": null, "population": null, "is_in": null, "source": null, "name:ar": null, "osm_id": 5217593846, "osm_type": "nodes" }, "geometry": { "type": "Point", "coordinates": [ 59.0778921, 22.8017324 ] } },
{ "type": "Feature", "properties": { "name": "الفلة", "name:en": "Al Fala", "place": "village", "landuse": null, "population": null, "is_in": "Oman , عُمان", "source": null, "name:ar": "الفالع", "osm_id": 1720783711, "osm_type": "nodes" }, "geometry": { "type": "Point", "coordinates": [ 58.9675918, 23.2097681 ] } },
{ "type": "Feature", "properties": { "name": null, "name:en": null, "place": "hamlet", "landuse": null, "population": null, "is_in": null, "source": null, "name:ar": null, "osm_id": 4576153847, "osm_type": "nodes" }, "geometry": { "type": "Point", "coordinates": [ 59.1044509, 22.9296604 ] } },
{ "type": "Feature", "properties": { "name": null, "name:en": null, "place": "hamlet", "landuse": null, "population": null, "is_in": null, "source": null, "name:ar": null, "osm_id": 4543780918, "osm_type": "nodes" }, "geometry": { "type": "Point", "coordinates": [ 59.1164943, 22.8728286 ] } },
{ "type": "Feature", "properties": { "name": "حاجر", "name:en": "Hajir", "place": "village", "landuse": null, "population": null, "is_in": "Oman , عُمان", "source": null, "name:ar": "حاجر", "osm_id": 1721732779, "osm_type": "nodes" }, "geometry": { "type": "Point", "coordinates": [ 58.7934554, 22.9795817 ] } },
{ "type": "Feature", "properties": { "name": "قسة", "name:en": "Qasah", "place": "village", "landuse": null, "population": null, "is_in": "Oman , عُمان", "source": null, "name:ar": "قسة", "osm_id": 1716932013, "osm_type": "nodes" }, "geometry": { "type": "Point", "coordinates": [ 59.4117597, 22.4304504 ] } },
{ "type": "Feature", "properties": { "name": "الجباعي", "name:en": "Al Jibai", "place": "village", "landuse": null, "population": null, "is_in": "Oman , عُمان", "source": null, "name:ar": "الجباعي", "osm_id": 1720979361, "osm_type": "nodes" }, "geometry": { "type": "Point", "coordinates": [ 59.3864805, 22.4276882 ] } },
{ "type": "Feature", "properties": { "name": "جنة", "name:en": "Jinnah", "place": "village", "landuse": null, "population": null, "is_in": "Oman , عُمان", "source": null, "name:ar": "الجناه", "osm_id": 1720797541, "osm_type": "nodes" }, "geometry": { "type": "Point", "coordinates": [ 58.9888515, 23.1795444 ] } },
{ "type": "Feature", "properties": { "name": "قعلة", "name:en": "Qalat", "place": "village", "landuse": null, "population": null, "is_in": "Oman , عُمان", "source": null, "name:ar": "قعلة", "osm_id": 1721769245, "osm_type": "nodes" }, "geometry": { "type": "Point", "coordinates": [ 58.9328133, 23.0378132 ] } },
{ "type": "Feature", "properties": { "name": "فيق اللزاميين", "name:en": null, "place": "hamlet", "landuse": null, "population": "150", "is_in": null, "source": null, "name:ar": null, "osm_id": 3731928944, "osm_type": "nodes" }, "geometry": { "type": "Point", "coordinates": [ 58.9406668, 23.0441345 ] } },
{ "type": "Feature", "properties": { "name": "خور جراما", "name:en": "Khawr al Jaramah", "place": "village", "landuse": null, "population": null, "is_in": "Oman , عُمان", "source": null, "name:ar": "خور جراما", "osm_id": 1716930685, "osm_type": "nodes" }, "geometry": { "type": "Point", "coordinates": [ 59.7163197, 22.4938282 ] } },
{ "type": "Feature", "properties": { "name": null, "name:en": null, "place": "hamlet", "landuse": null, "population": null, "is_in": null, "source": null, "name:ar": null, "osm_id": 4540228350, "osm_type": "nodes" }, "geometry": { "type": "Point", "coordinates": [ 58.6474799, 22.8647183 ] } },
{ "type": "Feature", "properties": { "name": "الرده", "name:en": "Raddah", "place": "village", "landuse": null, "population": null, "is_in": null, "source": null, "name:ar": "الرده", "osm_id": 1721005766, "osm_type": "nodes" }, "geometry": { "type": "Point", "coordinates": [ 57.4, 23.86 ] } },
{ "type": "Feature", "properties": { "name": "شارق", "name:en": "Shariq", "place": "village", "landuse": null, "population": null, "is_in": "Oman , عُمان", "source": null, "name:ar": "شارق", "osm_id": 1716933218, "osm_type": "nodes" }, "geometry": { "type": "Point", "coordinates": [ 58.1233706, 22.5270393 ] } },
{ "type": "Feature", "properties": { "name": "أبورغوه", "name:en": null, "place": "village", "landuse": null, "population": null, "is_in": null, "source": null, "name:ar": null, "osm_id": 8691525531, "osm_type": "nodes" }, "geometry": { "type": "Point", "coordinates": [ 57.3831424, 23.8642048 ] } },
{ "type": "Feature", "properties": { "name": "الواسط", "name:en": "Al Wasit", "place": "village", "landuse": null, "population": null, "is_in": null, "source": null, "name:ar": "الواسط", "osm_id": 1721001371, "osm_type": "nodes" }, "geometry": { "type": "Point", "coordinates": [ 57.3583319, 23.8588298 ] } },
{ "type": "Feature", "properties": { "name": "تنعم", "name:en": "Tanaam", "place": "village", "landuse": null, "population": null, "is_in": null, "source": null, "name:ar": "تنعم", "osm_id": 1721773966, "osm_type": "nodes" }, "geometry": { "type": "Point", "coordinates": [ 56.47, 23.14 ] } },
{ "type": "Feature", "properties": { "name": "ظاهر الفوارس", "name:en": "Dahir", "place": "village", "landuse": null, "population": null, "is_in": null, "source": null, "name:ar": "ظاهر الفوارس", "osm_id": 1721790747, "osm_type": "nodes" }, "geometry": { "type": "Point", "coordinates": [ 56.643741, 23.644051 ] } },
{ "type": "Feature", "properties": { "name": "المحيول", "name:en": "Al Mahul", "place": "village", "landuse": null, "population": null, "is_in": null, "source": null, "name:ar": "المحيول", "osm_id": 1721792273, "osm_type": "nodes" }, "geometry": { "type": "Point", "coordinates": [ 56.6403965, 23.5800567 ] } },
{ "type": "Feature", "properties": { "name": "جحلوت", "name:en": "Jahlut", "place": "village", "landuse": null, "population": null, "is_in": null, "source": null, "name:ar": "جحلوت", "osm_id": 1720806614, "osm_type": "nodes" }, "geometry": { "type": "Point", "coordinates": [ 58.6, 23.33 ] } },
{ "type": "Feature", "properties": { "name": "البر", "name:en": "Bir Bira", "place": "village", "landuse": null, "population": null, "is_in": "Oman , عُمان", "source": null, "name:ar": "بئر براء", "osm_id": 1720979368, "osm_type": "nodes" }, "geometry": { "type": "Point", "coordinates": [ 59.47, 22.61 ] } },
{ "type": "Feature", "properties": { "name": null, "name:en": null, "place": "hamlet", "landuse": null, "population": null, "is_in": null, "source": null, "name:ar": null, "osm_id": 4539907601, "osm_type": "nodes" }, "geometry": { "type": "Point", "coordinates": [ 59.004582, 22.8904707 ] } },
{ "type": "Feature", "properties": { "name": null, "name:en": null, "place": "isolated_dwelling", "landuse": null, "population": null, "is_in": null, "source": null, "name:ar": null, "osm_id": 5217623476, "osm_type": "nodes" }, "geometry": { "type": "Point", "coordinates": [ 59.0106491, 22.9031923 ] } },
{ "type": "Feature", "properties": { "name": null, "name:en": null, "place": "hamlet", "landuse": null, "population": null, "is_in": null, "source": null, "name:ar": null, "osm_id": 5912493186, "osm_type": "nodes" }, "geometry": { "type": "Point", "coordinates": [ 59.0212202, 22.8892054 ] } },
{ "type": "Feature", "properties": { "name": null, "name:en": null, "place": "hamlet", "landuse": null, "population": null, "is_in": null, "source": null, "name:ar": null, "osm_id": 4577074933, "osm_type": "nodes" }, "geometry": { "type": "Point", "coordinates": [ 59.0006328, 22.888179 ] } },
{ "type": "Feature", "properties": { "name": null, "name:en": null, "place": "hamlet", "landuse": null, "population": null, "is_in": null, "source": null, "name:ar": null, "osm_id": 4574956135, "osm_type": "nodes" }, "geometry": { "type": "Point", "coordinates": [ 59.0340303, 22.8655613 ] } },
{ "type": "Feature", "properties": { "name": null, "name:en": null, "place": "hamlet", "landuse": null, "population": null, "is_in": null, "source": null, "name:ar": null, "osm_id": 5219969706, "osm_type": "nodes" }, "geometry": { "type": "Point", "coordinates": [ 59.046461, 22.8978084 ] } },
{ "type": "Feature", "properties": { "name": "منجرد", "name:en": "Munjarid", "place": "village", "landuse": null, "population": null, "is_in": "Oman , عُمان", "source": null, "name:ar": "منجرد", "osm_id": 1716931761, "osm_type": "nodes" }, "geometry": { "type": "Point", "coordinates": [ 58.6506974, 22.7415634 ] } },
{ "type": "Feature", "properties": { "name": "البويردة", "name:en": "albwairdah", "place": "village", "landuse": null, "population": null, "is_in": null, "source": null, "name:ar": "البويردة", "osm_id": 1721809509, "osm_type": "nodes" }, "geometry": { "type": "Point", "coordinates": [ 56.49, 23.63 ] } },
{ "type": "Feature", "properties": { "name": null, "name:en": null, "place": "village", "landuse": null, "population": null, "is_in": null, "source": null, "name:ar": null, "osm_id": 2525036882, "osm_type": "nodes" }, "geometry": { "type": "Point", "coordinates": [ 57.6693185, 23.7148868 ] } },
{ "type": "Feature", "properties": { "name": null, "name:en": null, "place": "village", "landuse": null, "population": null, "is_in": null, "source": null, "name:ar": null, "osm_id": 2524791434, "osm_type": "nodes" }, "geometry": { "type": "Point", "coordinates": [ 57.7349456, 23.6774448 ] } },
{ "type": "Feature", "properties": { "name": null, "name:en": null, "place": "village", "landuse": null, "population": null, "is_in": null, "source": null, "name:ar": null, "osm_id": 2635406322, "osm_type": "nodes" }, "geometry": { "type": "Point", "coordinates": [ 58.4807403, 22.6101016 ] } },
{ "type": "Feature", "properties": { "name": null, "name:en": null, "place": "village", "landuse": null, "population": null, "is_in": null, "source": null, "name:ar": null, "osm_id": 2450265346, "osm_type": "nodes" }, "geometry": { "type": "Point", "coordinates": [ 58.473953, 22.7593924 ] } },
{ "type": "Feature", "properties": { "name": "دات حيل", "name:en": "Dat Hayl", "place": "village", "landuse": null, "population": null, "is_in": null, "source": null, "name:ar": "دات حيل", "osm_id": 1718140048, "osm_type": "nodes" }, "geometry": { "type": "Point", "coordinates": [ 57.3, 23.09 ] } },
{ "type": "Feature", "properties": { "name": "الوطاة", "name:en": null, "place": "village", "landuse": null, "population": null, "is_in": null, "source": null, "name:ar": "الوطاة", "osm_id": 1721799860, "osm_type": "nodes" }, "geometry": { "type": "Point", "coordinates": [ 56.2366526, 23.4381114 ] } },
{ "type": "Feature", "properties": { "name": "معبس", "name:en": "Mabas", "place": "village", "landuse": null, "population": null, "is_in": null, "source": null, "name:ar": "معبس", "osm_id": 1721758490, "osm_type": "nodes" }, "geometry": { "type": "Point", "coordinates": [ 56.9802015, 23.0601112 ] } },
{ "type": "Feature", "properties": { "name": "الجهلية", "name:en": "Al Jahliyah", "place": "village", "landuse": null, "population": null, "is_in": null, "source": null, "name:ar": "الجاهلية", "osm_id": 1718139900, "osm_type": "nodes" }, "geometry": { "type": "Point", "coordinates": [ 57.32, 23.18 ] } },
{ "type": "Feature", "properties": { "name": "al Hota", "name:en": null, "place": "village", "landuse": null, "population": null, "is_in": null, "source": null, "name:ar": null, "osm_id": 7097585324, "osm_type": "nodes" }, "geometry": { "type": "Point", "coordinates": [ 57.3660205, 23.1042101 ] } },
{ "type": "Feature", "properties": { "name": "الحيل", "name:en": null, "place": "village", "landuse": null, "population": null, "is_in": null, "source": null, "name:ar": null, "osm_id": 3737251485, "osm_type": "nodes" }, "geometry": { "type": "Point", "coordinates": [ 58.5485647, 22.9792381 ] } },
{ "type": "Feature", "properties": { "name": "الحصن", "name:en": "Al Hisn", "place": "village", "landuse": null, "population": null, "is_in": null, "source": null, "name:ar": "الحصن", "osm_id": 1721769535, "osm_type": "nodes" }, "geometry": { "type": "Point", "coordinates": [ 58.5464999, 22.9815413 ] } },
{ "type": "Feature", "properties": { "name": "الحصن", "name:en": null, "place": "village", "landuse": null, "population": null, "is_in": null, "source": null, "name:ar": null, "osm_id": 3737250937, "osm_type": "nodes" }, "geometry": { "type": "Point", "coordinates": [ 58.54614, 22.9818457 ] } },
{ "type": "Feature", "properties": { "name": "فود", "name:en": "Faud", "place": "village", "landuse": null, "population": null, "is_in": null, "source": null, "name:ar": "فود", "osm_id": 1720806587, "osm_type": "nodes" }, "geometry": { "type": "Point", "coordinates": [ 58.58, 23.36 ] } },
{ "type": "Feature", "properties": { "name": null, "name:en": null, "place": "village", "landuse": null, "population": null, "is_in": null, "source": null, "name:ar": null, "osm_id": 224053165, "osm_type": "nodes" }, "geometry": { "type": "Point", "coordinates": [ 58.5852218, 23.4599618 ] } },
{ "type": "Feature", "properties": { "name": "حلة القويطع", "name:en": "Hillat al Quwaitah", "place": "village", "landuse": null, "population": null, "is_in": null, "source": null, "name:ar": "حلة القويطع", "osm_id": 1718140202, "osm_type": "nodes" }, "geometry": { "type": "Point", "coordinates": [ 57.3, 23.1600014 ] } },
{ "type": "Feature", "properties": { "name": "Maqāqah", "name:en": null, "place": "hamlet", "landuse": null, "population": null, "is_in": null, "source": "https://www.mindat.org/feature-388516.html;https://travelingluck.com/Asia/Oman/Oman+%28general%29/_388516_Maq%C4%81qah.html;https://www.agda.ae/en/catalogue/tna/fco/18/1894/n/1", "name:ar": null, "osm_id": 10684641595, "osm_type": "nodes" }, "geometry": { "type": "Point", "coordinates": [ 56.2102484, 26.0297953 ] } },
{ "type": "Feature", "properties": { "name": "قريحات", "name:en": "QURAYHAT", "place": "village", "landuse": null, "population": null, "is_in": null, "source": null, "name:ar": "القريحات", "osm_id": 7055463122, "osm_type": "nodes" }, "geometry": { "type": "Point", "coordinates": [ 57.5959611, 23.7658518 ] } },
{ "type": "Feature", "properties": { "name": "Masirat Ash Shirayqiyyin", "name:en": null, "place": "village", "landuse": null, "population": null, "is_in": null, "source": null, "name:ar": null, "osm_id": 6135768403, "osm_type": "nodes" }, "geometry": { "type": "Point", "coordinates": [ 57.5210144, 23.150208 ] } },
{ "type": "Feature", "properties": { "name": "رخضين", "name:en": "Rukhdayn", "place": "village", "landuse": null, "population": null, "is_in": null, "source": null, "name:ar": "رهضين", "osm_id": 1718134066, "osm_type": "nodes" }, "geometry": { "type": "Point", "coordinates": [ 57.5682941, 23.1260139 ] } },
{ "type": "Feature", "properties": { "name": "الخطيمة", "name:en": "Al Khutaymah", "place": "village", "landuse": null, "population": null, "is_in": null, "source": null, "name:ar": "الخطيمة", "osm_id": 1718132962, "osm_type": "nodes" }, "geometry": { "type": "Point", "coordinates": [ 57.5287769, 23.1503009 ] } },
{ "type": "Feature", "properties": { "name": "طوي سعدة", "name:en": "Tawi Sadh", "place": "hamlet", "landuse": null, "population": null, "is_in": null, "source": null, "name:ar": "طوي سعده", "osm_id": 1721748922, "osm_type": "nodes" }, "geometry": { "type": "Point", "coordinates": [ 57.67222, 22.9518706 ] } },
{ "type": "Feature", "properties": { "name": "سلوت", "name:en": "Salut", "place": "village", "landuse": null, "population": null, "is_in": null, "source": null, "name:ar": "سلوت", "osm_id": 1721772216, "osm_type": "nodes" }, "geometry": { "type": "Point", "coordinates": [ 57.6585569, 23.0533603 ] } },
{ "type": "Feature", "properties": { "name": "مصيرة رواجح", "name:en": "Masirat Ruwajih", "place": "village", "landuse": null, "population": null, "is_in": null, "source": null, "name:ar": "مصيرة رواجح", "osm_id": 1721748912, "osm_type": "nodes" }, "geometry": { "type": "Point", "coordinates": [ 57.6704506, 23.0432778 ] } },
{ "type": "Feature", "properties": { "name": null, "name:en": null, "place": "hamlet", "landuse": null, "population": null, "is_in": null, "source": null, "name:ar": null, "osm_id": 11923427492, "osm_type": "nodes" }, "geometry": { "type": "Point", "coordinates": [ 56.1438762, 25.745302 ] } },
{ "type": "Feature", "properties": { "name": "وادي ضنك", "name:en": null, "place": "village", "landuse": null, "population": null, "is_in": null, "source": null, "name:ar": "وادي ضنك", "osm_id": 5877015784, "osm_type": "nodes" }, "geometry": { "type": "Point", "coordinates": [ 56.1499095, 23.548831 ] } },
{ "type": "Feature", "properties": { "name": "الخطم", "name:en": null, "place": "village", "landuse": null, "population": null, "is_in": null, "source": null, "name:ar": "الخطم", "osm_id": 5877015776, "osm_type": "nodes" }, "geometry": { "type": "Point", "coordinates": [ 56.2188498, 23.4551035 ] } },
{ "type": "Feature", "properties": { "name": "بو خابي", "name:en": "Bu Khabi", "place": "village", "landuse": null, "population": null, "is_in": null, "source": null, "name:ar": "بو خابي", "osm_id": 1721799741, "osm_type": "nodes" }, "geometry": { "type": "Point", "coordinates": [ 56.2095765, 23.4601572 ] } },
{ "type": "Feature", "properties": { "name": "المروجي", "name:en": null, "place": "village", "landuse": null, "population": null, "is_in": null, "source": null, "name:ar": "المروجي", "osm_id": 5877015777, "osm_type": "nodes" }, "geometry": { "type": "Point", "coordinates": [ 56.2198798, 23.4478593 ] } },
{ "type": "Feature", "properties": { "name": "المحجن", "name:en": null, "place": "village", "landuse": null, "population": null, "is_in": null, "source": null, "name:ar": "المحجن", "osm_id": 5877015778, "osm_type": "nodes" }, "geometry": { "type": "Point", "coordinates": [ 56.241949, 23.4326856 ] } },
{ "type": "Feature", "properties": { "name": "الأفلاج", "name:en": null, "place": "village", "landuse": null, "population": null, "is_in": null, "source": null, "name:ar": "الأفلاج", "osm_id": 5877015775, "osm_type": "nodes" }, "geometry": { "type": "Point", "coordinates": [ 56.2265853, 23.4237027 ] } },
{ "type": "Feature", "properties": { "name": "شعبة الظفرة", "name:en": null, "place": "village", "landuse": null, "population": null, "is_in": null, "source": null, "name:ar": "شعبة الظفرة", "osm_id": 5877015779, "osm_type": "nodes" }, "geometry": { "type": "Point", "coordinates": [ 56.3236491, 23.36812 ] } },
{ "type": "Feature", "properties": { "name": null, "name:en": null, "place": "village", "landuse": null, "population": null, "is_in": null, "source": null, "name:ar": null, "osm_id": 2406131680, "osm_type": "nodes" }, "geometry": { "type": "Point", "coordinates": [ 57.3131503, 23.455405 ] } },
{ "type": "Feature", "properties": { "name": "Wadi Al haimli", "name:en": null, "place": "village", "landuse": null, "population": null, "is_in": null, "source": null, "name:ar": "وادي الحيملي", "osm_id": 8929320460, "osm_type": "nodes" }, "geometry": { "type": "Point", "coordinates": [ 57.2095997, 23.5765789 ] } },
{ "type": "Feature", "properties": { "name": "القصميتين", "name:en": "Al Qasmitayn", "place": "village", "landuse": null, "population": null, "is_in": null, "source": null, "name:ar": "القصميتين", "osm_id": 1721860067, "osm_type": "nodes" }, "geometry": { "type": "Point", "coordinates": [ 57.4697318, 23.2803548 ] } },
{ "type": "Feature", "properties": { "name": "الجفر", "name:en": "Al Jufar", "place": "village", "landuse": null, "population": null, "is_in": null, "source": null, "name:ar": "الجفر", "osm_id": 1721860060, "osm_type": "nodes" }, "geometry": { "type": "Point", "coordinates": [ 57.4, 23.27 ] } },
{ "type": "Feature", "properties": { "name": "طوي النصف", "name:en": "Tawi An'Nisf", "place": "village", "landuse": null, "population": null, "is_in": null, "source": null, "name:ar": null, "osm_id": 2403572030, "osm_type": "nodes" }, "geometry": { "type": "Point", "coordinates": [ 57.9183502, 23.2445131 ] } },
{ "type": "Feature", "properties": { "name": "حنة", "name:en": null, "place": "village", "landuse": null, "population": null, "is_in": null, "source": null, "name:ar": null, "osm_id": 2403564016, "osm_type": "nodes" }, "geometry": { "type": "Point", "coordinates": [ 57.9185627, 23.2924536 ] } },
{ "type": "Feature", "properties": { "name": "الدص", "name:en": "Ad Das", "place": "village", "landuse": null, "population": null, "is_in": null, "source": null, "name:ar": "الدص", "osm_id": 1721860048, "osm_type": "nodes" }, "geometry": { "type": "Point", "coordinates": [ 57.53, 23.24 ] } },
{ "type": "Feature", "properties": { "name": "الحجر", "name:en": "Al Hajar", "place": "village", "landuse": null, "population": null, "is_in": null, "source": null, "name:ar": "الحجر", "osm_id": 1718141169, "osm_type": "nodes" }, "geometry": { "type": "Point", "coordinates": [ 57.95, 23.07 ] } },
{ "type": "Feature", "properties": { "name": "رؤوس", "name:en": "Ruus", "place": "village", "landuse": null, "population": null, "is_in": null, "source": null, "name:ar": "رؤوس", "osm_id": 1718134092, "osm_type": "nodes" }, "geometry": { "type": "Point", "coordinates": [ 57.54, 23.15 ] } },
{ "type": "Feature", "properties": { "name": "هليلات", "name:en": "Hulaylat", "place": "village", "landuse": null, "population": null, "is_in": null, "source": null, "name:ar": "حليلات", "osm_id": 1718133400, "osm_type": "nodes" }, "geometry": { "type": "Point", "coordinates": [ 57.5615289, 23.1340254 ] } },
{ "type": "Feature", "properties": { "name": "بيبان", "name:en": "Biban", "place": "village", "landuse": null, "population": null, "is_in": null, "source": null, "name:ar": "بيبان", "osm_id": 1721748132, "osm_type": "nodes" }, "geometry": { "type": "Point", "coordinates": [ 57.7321069, 23.0929505 ] } },
{ "type": "Feature", "properties": { "name": "الغبة", "name:en": "Al Ghaba", "place": "village", "landuse": null, "population": null, "is_in": null, "source": null, "name:ar": "الغبة", "osm_id": 1721748131, "osm_type": "nodes" }, "geometry": { "type": "Point", "coordinates": [ 57.7301258, 23.0923864 ] } },
{ "type": "Feature", "properties": { "name": "الخدراء", "name:en": "Al Khadra", "place": "village", "landuse": null, "population": null, "is_in": null, "source": null, "name:ar": "الخدراء", "osm_id": 1721747160, "osm_type": "nodes" }, "geometry": { "type": "Point", "coordinates": [ 57.754828, 23.1412825 ] } },
{ "type": "Feature", "properties": { "name": "سنار", "name:en": "Sana", "place": "village", "landuse": null, "population": null, "is_in": null, "source": null, "name:ar": "سنار", "osm_id": 1722024157, "osm_type": "nodes" }, "geometry": { "type": "Point", "coordinates": [ 57.63, 23.19 ] } },
{ "type": "Feature", "properties": { "name": "شو", "name:en": "Shaww", "place": "village", "landuse": null, "population": null, "is_in": null, "source": null, "name:ar": "شوت", "osm_id": 1721748919, "osm_type": "nodes" }, "geometry": { "type": "Point", "coordinates": [ 57.68, 23.17 ] } },
{ "type": "Feature", "properties": { "name": "أمطي", "name:en": "Amti", "place": "village", "landuse": null, "population": null, "is_in": null, "source": null, "name:ar": "أمطي", "osm_id": 1722024086, "osm_type": "nodes" }, "geometry": { "type": "Point", "coordinates": [ 57.72, 23.2 ] } },
{ "type": "Feature", "properties": { "name": "مسفاح", "name:en": "Misfah", "place": "village", "landuse": null, "population": null, "is_in": null, "source": null, "name:ar": "مسفاة الخواطر", "osm_id": 1721813739, "osm_type": "nodes" }, "geometry": { "type": "Point", "coordinates": [ 57.1346885, 23.228125 ] } },
{ "type": "Feature", "properties": { "name": "دار سوداء", "name:en": "Dar Sawda", "place": "village", "landuse": null, "population": null, "is_in": null, "source": null, "name:ar": "دار سوداء", "osm_id": 1721857648, "osm_type": "nodes" }, "geometry": { "type": "Point", "coordinates": [ 57.1969208, 23.2410351 ] } },
{ "type": "Feature", "properties": { "name": "معبت", "name:en": "Mahbat", "place": "village", "landuse": null, "population": null, "is_in": null, "source": null, "name:ar": "مهبط", "osm_id": 1718133608, "osm_type": "nodes" }, "geometry": { "type": "Point", "coordinates": [ 57.45, 23.12 ] } },
{ "type": "Feature", "properties": { "name": "القرية", "name:en": "Al Qaryah", "place": "village", "landuse": null, "population": null, "is_in": null, "source": null, "name:ar": "القرية", "osm_id": 1718139954, "osm_type": "nodes" }, "geometry": { "type": "Point", "coordinates": [ 57.31, 23.1 ] } },
{ "type": "Feature", "properties": { "name": "فراعة", "name:en": "Firaah", "place": "village", "landuse": null, "population": null, "is_in": null, "source": null, "name:ar": "فراعة", "osm_id": 1722027771, "osm_type": "nodes" }, "geometry": { "type": "Point", "coordinates": [ 57.3219265, 23.2246653 ] } },
{ "type": "Feature", "properties": { "name": "الغافات", "name:en": "Al Ghafat", "place": "village", "landuse": null, "population": null, "is_in": null, "source": null, "name:ar": "الغافات", "osm_id": 1721771897, "osm_type": "nodes" }, "geometry": { "type": "Point", "coordinates": [ 57.1479079, 22.9870468 ] } },
{ "type": "Feature", "properties": { "name": null, "name:en": null, "place": "village", "landuse": null, "population": null, "is_in": null, "source": null, "name:ar": null, "osm_id": 2337608615, "osm_type": "nodes" }, "geometry": { "type": "Point", "coordinates": [ 57.1013442, 23.1687196 ] } },
{ "type": "Feature", "properties": { "name": "معول", "name:en": "Miwal", "place": "village", "landuse": null, "population": null, "is_in": null, "source": null, "name:ar": "معول", "osm_id": 1721761613, "osm_type": "nodes" }, "geometry": { "type": "Point", "coordinates": [ 56.93, 23.11 ] } },
{ "type": "Feature", "properties": { "name": "حيي", "name:en": "Hayi", "place": "village", "landuse": null, "population": null, "is_in": null, "source": null, "name:ar": "حيي", "osm_id": 1722014670, "osm_type": "nodes" }, "geometry": { "type": "Point", "coordinates": [ 57.66, 23.46 ] } },
{ "type": "Feature", "properties": { "name": "قريصة", "name:en": null, "place": "hamlet", "landuse": null, "population": null, "is_in": null, "source": null, "name:ar": null, "osm_id": 2396120749, "osm_type": "nodes" }, "geometry": { "type": "Point", "coordinates": [ 57.7945845, 22.9940839 ] } },
{ "type": "Feature", "properties": { "name": "شراج الحلف", "name:en": null, "place": "hamlet", "landuse": null, "population": null, "is_in": null, "source": null, "name:ar": null, "osm_id": 2400432175, "osm_type": "nodes" }, "geometry": { "type": "Point", "coordinates": [ 57.8003802, 23.0289697 ] } },
{ "type": "Feature", "properties": { "name": "المحل", "name:en": "Al Mahal", "place": "village", "landuse": null, "population": null, "is_in": null, "source": null, "name:ar": null, "osm_id": 2403604585, "osm_type": "nodes" }, "geometry": { "type": "Point", "coordinates": [ 57.837841, 23.1170085 ] } },
{ "type": "Feature", "properties": { "name": null, "name:en": null, "place": "hamlet", "landuse": null, "population": null, "is_in": null, "source": null, "name:ar": null, "osm_id": 2879206792, "osm_type": "nodes" }, "geometry": { "type": "Point", "coordinates": [ 57.7671282, 23.2275397 ] } },
{ "type": "Feature", "properties": { "name": "العلم", "name:en": "Al Alam", "place": "village", "landuse": null, "population": null, "is_in": null, "source": null, "name:ar": null, "osm_id": 2395103473, "osm_type": "nodes" }, "geometry": { "type": "Point", "coordinates": [ 57.7746767, 22.9278448 ] } },
{ "type": "Feature", "properties": { "name": "حي النهضة شرق", "name:en": null, "place": "village", "landuse": null, "population": null, "is_in": null, "source": null, "name:ar": null, "osm_id": 3724239373, "osm_type": "nodes" }, "geometry": { "type": "Point", "coordinates": [ 57.4369027, 23.4559707 ] } },
{ "type": "Feature", "properties": { "name": "الحزم", "name:en": "Hazam", "place": "village", "landuse": null, "population": null, "is_in": null, "source": null, "name:ar": "الحزم", "osm_id": 1721860261, "osm_type": "nodes" }, "geometry": { "type": "Point", "coordinates": [ 57.48, 23.55 ] } },
{ "type": "Feature", "properties": { "name": "العلاية", "name:en": "Al Alayah", "place": "village", "landuse": null, "population": null, "is_in": null, "source": null, "name:ar": "العلاية", "osm_id": 1721860049, "osm_type": "nodes" }, "geometry": { "type": "Point", "coordinates": [ 57.44, 23.39 ] } },
{ "type": "Feature", "properties": { "name": null, "name:en": null, "place": "village", "landuse": null, "population": null, "is_in": null, "source": null, "name:ar": null, "osm_id": 2806020119, "osm_type": "nodes" }, "geometry": { "type": "Point", "coordinates": [ 58.8819363, 22.9962821 ] } },
{ "type": "Feature", "properties": { "name": "أذعيت", "name:en": "Adheet", "place": "village", "landuse": null, "population": null, "is_in": "Oman , عُمان", "source": null, "name:ar": "أذعيت", "osm_id": 1720530753, "osm_type": "nodes" }, "geometry": { "type": "Point", "coordinates": [ 54.5352571, 17.1889955 ] } },
{ "type": "Feature", "properties": { "name": "العوينة", "name:en": null, "place": "village", "landuse": null, "population": null, "is_in": null, "source": null, "name:ar": "العوينة", "osm_id": 5652778902, "osm_type": "nodes" }, "geometry": { "type": "Point", "coordinates": [ 55.8483795, 24.5661107 ] } },
{ "type": "Feature", "properties": { "name": "عبول", "name:en": "Abal", "place": "village", "landuse": null, "population": null, "is_in": null, "source": null, "name:ar": "عبول", "osm_id": 1719529600, "osm_type": "nodes" }, "geometry": { "type": "Point", "coordinates": [ 56.0439317, 24.4320359 ] } },
{ "type": "Feature", "properties": { "name": "غافة بن عوض", "name:en": null, "place": "village", "landuse": null, "population": null, "is_in": null, "source": null, "name:ar": "غافة بن عوض", "osm_id": 5652778901, "osm_type": "nodes" }, "geometry": { "type": "Point", "coordinates": [ 55.84927, 24.6128413 ] } },
{ "type": "Feature", "properties": { "name": "مدل", "name:en": null, "place": "village", "landuse": null, "population": null, "is_in": null, "source": null, "name:ar": "مدل", "osm_id": 5652778904, "osm_type": "nodes" }, "geometry": { "type": "Point", "coordinates": [ 55.9281806, 24.3870467 ] } },
{ "type": "Feature", "properties": { "name": "الميحة", "name:en": null, "place": "village", "landuse": null, "population": null, "is_in": null, "source": null, "name:ar": "الميحة", "osm_id": 5652778896, "osm_type": "nodes" }, "geometry": { "type": "Point", "coordinates": [ 55.9137974, 24.7755954 ] } },
{ "type": "Feature", "properties": { "name": "غضيا", "name:en": null, "place": "village", "landuse": null, "population": null, "is_in": null, "source": null, "name:ar": "غضيا", "osm_id": 5877015782, "osm_type": "nodes" }, "geometry": { "type": "Point", "coordinates": [ 56.1892168, 23.4968972 ] } },
{ "type": "Feature", "properties": { "name": "المعمور", "name:en": "Mamur", "place": "village", "landuse": null, "population": null, "is_in": null, "source": null, "name:ar": "المعمور", "osm_id": 1721797581, "osm_type": "nodes" }, "geometry": { "type": "Point", "coordinates": [ 56.2477521, 23.4203604 ] } },
{ "type": "Feature", "properties": { "name": "حي التراث", "name:en": null, "place": "village", "landuse": null, "population": null, "is_in": null, "source": null, "name:ar": null, "osm_id": 2463905705, "osm_type": "nodes" }, "geometry": { "type": "Point", "coordinates": [ 57.5745758, 22.8999805 ] } },
{ "type": "Feature", "properties": { "name": "معيشيق", "name:en": null, "place": "village", "landuse": null, "population": null, "is_in": null, "source": null, "name:ar": "معيشيق", "osm_id": 5652778903, "osm_type": "nodes" }, "geometry": { "type": "Point", "coordinates": [ 55.8508364, 24.3999348 ] } },
{ "type": "Feature", "properties": { "name": "القاعيََّه", "name:en": "Alqaeyah", "place": "village", "landuse": null, "population": null, "is_in": null, "source": null, "name:ar": "القاعيّه", "osm_id": 5652778898, "osm_type": "nodes" }, "geometry": { "type": "Point", "coordinates": [ 55.989932, 24.6459843 ] } },
{ "type": "Feature", "properties": { "name": "أم الطراثيث", "name:en": null, "place": "village", "landuse": null, "population": null, "is_in": null, "source": null, "name:ar": "أم الطراثيث", "osm_id": 5652778894, "osm_type": "nodes" }, "geometry": { "type": "Point", "coordinates": [ 55.8848244, 24.855818 ] } },
{ "type": "Feature", "properties": { "name": "المغيدر", "name:en": null, "place": "village", "landuse": null, "population": null, "is_in": null, "source": null, "name:ar": "المغيدر", "osm_id": 5652778897, "osm_type": "nodes" }, "geometry": { "type": "Point", "coordinates": [ 55.8535732, 24.7998877 ] } },
{ "type": "Feature", "properties": { "name": "القطارة", "name:en": "Al Qattarah", "place": "village", "landuse": null, "population": null, "is_in": null, "source": null, "name:ar": "القطارة", "osm_id": 2336776715, "osm_type": "nodes" }, "geometry": { "type": "Point", "coordinates": [ 55.7515345, 24.2682879 ] } },
{ "type": "Feature", "properties": { "name": "صاع", "name:en": "Sa'", "place": "village", "landuse": null, "population": null, "is_in": null, "source": null, "name:ar": "صاع", "osm_id": 10044324090, "osm_type": "nodes" }, "geometry": { "type": "Point", "coordinates": [ 55.9671875, 24.1306972 ] } },
{ "type": "Feature", "properties": { "name": null, "name:en": null, "place": "hamlet", "landuse": null, "population": null, "is_in": null, "source": null, "name:ar": null, "osm_id": 11917840243, "osm_type": "nodes" }, "geometry": { "type": "Point", "coordinates": [ 56.2729097, 25.7761564 ] } },
{ "type": "Feature", "properties": { "name": "المحيدث", "name:en": null, "place": "village", "landuse": null, "population": null, "is_in": null, "source": null, "name:ar": "المحيدث", "osm_id": 6064986830, "osm_type": "nodes" }, "geometry": { "type": "Point", "coordinates": [ 56.3102213, 24.3908308 ] } },
{ "type": "Feature", "properties": { "name": "رحب", "name:en": "Rahab", "place": "village", "landuse": null, "population": null, "is_in": null, "source": null, "name:ar": "رحب", "osm_id": 1719461091, "osm_type": "nodes" }, "geometry": { "type": "Point", "coordinates": [ 56.3551606, 24.3638527 ] } },
{ "type": "Feature", "properties": { "name": "القطاني", "name:en": null, "place": "hamlet", "landuse": null, "population": null, "is_in": null, "source": null, "name:ar": "القطاني", "osm_id": 5610283929, "osm_type": "nodes" }, "geometry": { "type": "Point", "coordinates": [ 56.3309724, 24.5152986 ] } },
{ "type": "Feature", "properties": { "name": "القرين", "name:en": "AL Qurayn", "place": "village", "landuse": null, "population": null, "is_in": null, "source": null, "name:ar": null, "osm_id": 3812937024, "osm_type": "nodes" }, "geometry": { "type": "Point", "coordinates": [ 56.5421224, 23.2091597 ] } },
{ "type": "Feature", "properties": { "name": "شلاشل", "name:en": "Shalashil", "place": "village", "landuse": null, "population": null, "is_in": null, "source": null, "name:ar": null, "osm_id": 3812946393, "osm_type": "nodes" }, "geometry": { "type": "Point", "coordinates": [ 56.5461175, 23.1986433 ] } },
{ "type": "Feature", "properties": { "name": "Harf al Laylafi", "name:en": "Harf al Laylafi", "place": "hamlet", "landuse": null, "population": null, "is_in": null, "source": "https://www.mindat.org/feature-11774063.html", "name:ar": null, "osm_id": 11918771865, "osm_type": "nodes" }, "geometry": { "type": "Point", "coordinates": [ 56.1740814, 26.0471782 ] } },
{ "type": "Feature", "properties": { "name": "Shaghab شغب", "name:en": "Shaghab", "place": "hamlet", "landuse": null, "population": null, "is_in": null, "source": "https://www.mindat.org/feature-11765790.html", "name:ar": "شغب", "osm_id": 1719454254, "osm_type": "nodes" }, "geometry": { "type": "Point", "coordinates": [ 56.0290807, 24.9104806 ] } },
{ "type": "Feature", "properties": { "name": "حي المزرع", "name:en": "Hayy Almazra", "place": "village", "landuse": null, "population": null, "is_in": null, "source": null, "name:ar": null, "osm_id": 3812204860, "osm_type": "nodes" }, "geometry": { "type": "Point", "coordinates": [ 56.5006186, 23.2214091 ] } },
{ "type": "Feature", "properties": { "name": "حيل المشاك", "name:en": null, "place": "village", "landuse": null, "population": null, "is_in": null, "source": null, "name:ar": "حيل المشاك", "osm_id": 6064986827, "osm_type": "nodes" }, "geometry": { "type": "Point", "coordinates": [ 56.3269583, 24.379222 ] } },
{ "type": "Feature", "properties": { "name": "العقربية", "name:en": null, "place": "village", "landuse": null, "population": null, "is_in": null, "source": null, "name:ar": "العقربية", "osm_id": 6064986828, "osm_type": "nodes" }, "geometry": { "type": "Point", "coordinates": [ 56.3296834, 24.3707003 ] } },
{ "type": "Feature", "properties": { "name": "وادي الحيول", "name:en": null, "place": "village", "landuse": null, "population": null, "is_in": null, "source": null, "name:ar": "وادي الحيول", "osm_id": 6064986829, "osm_type": "nodes" }, "geometry": { "type": "Point", "coordinates": [ 56.3082472, 24.3797106 ] } },
{ "type": "Feature", "properties": { "name": "الظاهر", "name:en": null, "place": "village", "landuse": null, "population": null, "is_in": null, "source": null, "name:ar": "الظاهر", "osm_id": 6064986831, "osm_type": "nodes" }, "geometry": { "type": "Point", "coordinates": [ 56.3064447, 24.3873131 ] } },
{ "type": "Feature", "properties": { "name": "المثجار", "name:en": null, "place": "village", "landuse": null, "population": null, "is_in": null, "source": null, "name:ar": "المثجار", "osm_id": 6064986833, "osm_type": "nodes" }, "geometry": { "type": "Point", "coordinates": [ 56.3839498, 24.3581905 ] } },
{ "type": "Feature", "properties": { "name": "غصة", "name:en": "Ghassah", "place": "village", "landuse": null, "population": null, "is_in": "Oman , عُمان", "source": null, "name:ar": "غصة", "osm_id": 1718348297, "osm_type": "nodes" }, "geometry": { "type": "Point", "coordinates": [ 56.3183229, 26.240422 ] } },
{ "type": "Feature", "properties": { "name": "Khartum al Bih", "name:en": "Khartum al Bih", "place": "hamlet", "landuse": null, "population": null, "is_in": null, "source": "https://www.mindat.org/feature-11763529.html", "name:ar": null, "osm_id": 10819958603, "osm_type": "nodes" }, "geometry": { "type": "Point", "coordinates": [ 56.174404, 25.7952303 ] } },
{ "type": "Feature", "properties": { "name": "Al Hakil", "name:en": "Al Hakil", "place": "hamlet", "landuse": null, "population": null, "is_in": null, "source": "https://www.mindat.org/feature-11773446.html", "name:ar": null, "osm_id": 10821475511, "osm_type": "nodes" }, "geometry": { "type": "Point", "coordinates": [ 56.2604809, 25.7665645 ] } },
{ "type": "Feature", "properties": { "name": "فنس", "name:en": "Fins", "place": "village", "landuse": null, "population": null, "is_in": "Oman , عُمان", "source": null, "name:ar": "فنس", "osm_id": 1720980848, "osm_type": "nodes" }, "geometry": { "type": "Point", "coordinates": [ 59.2075508, 22.9270403 ] } },
{ "type": "Feature", "properties": { "name": "قف", "name:en": "Quff", "place": "village", "landuse": null, "population": null, "is_in": "Oman , عُمان", "source": null, "name:ar": "قف", "osm_id": 1720969677, "osm_type": "nodes" }, "geometry": { "type": "Point", "coordinates": [ 59.2533419, 22.8299891 ] } },
{ "type": "Feature", "properties": { "name": "Zibat", "name:en": "Zibat", "place": "hamlet", "landuse": null, "population": null, "is_in": null, "source": "https://www.mindat.org/feature-11763551.html", "name:ar": null, "osm_id": 11597353029, "osm_type": "nodes" }, "geometry": { "type": "Point", "coordinates": [ 56.1739562, 25.7941458 ] } },
{ "type": "Feature", "properties": { "name": "Ad Diyah", "name:en": "Ad Diyah", "place": "hamlet", "landuse": null, "population": null, "is_in": null, "source": "https://www.mindat.org/feature-11773448.html", "name:ar": null, "osm_id": 11902503345, "osm_type": "nodes" }, "geometry": { "type": "Point", "coordinates": [ 56.2806103, 25.7512145 ] } },
{ "type": "Feature", "properties": { "name": "صلان", "name:en": "Sallan", "place": "village", "landuse": null, "population": null, "is_in": "Oman , عُمان", "source": null, "name:ar": "صلان", "osm_id": 1720783349, "osm_type": "nodes" }, "geometry": { "type": "Point", "coordinates": [ 58.9894324, 23.1995975 ] } },
{ "type": "Feature", "properties": { "name": "عمق", "name:en": "Umq", "place": "hamlet", "landuse": null, "population": null, "is_in": "Oman , عُمان", "source": null, "name:ar": "عمق", "osm_id": 1720981048, "osm_type": "nodes" }, "geometry": { "type": "Point", "coordinates": [ 59.09, 22.9 ] } },
{ "type": "Feature", "properties": { "name": "‘Umq", "name:en": null, "place": "hamlet", "landuse": null, "population": null, "is_in": null, "source": "gns_om", "name:ar": "‘Umq", "osm_id": 226873967, "osm_type": "nodes" }, "geometry": { "type": "Point", "coordinates": [ 59.085833, 22.899444 ] } },
{ "type": "Feature", "properties": { "name": "أدنهم", "name:en": "Adanham", "place": "village", "landuse": null, "population": null, "is_in": "Oman , عُمان", "source": null, "name:ar": "أدنهم", "osm_id": 1720529201, "osm_type": "nodes" }, "geometry": { "type": "Point", "coordinates": [ 54.3699063, 17.1796497 ] } },
{ "type": "Feature", "properties": { "name": "كثور", "name:en": "Kitheort", "place": "village", "landuse": null, "population": null, "is_in": "Oman , عُمان", "source": null, "name:ar": "كثور", "osm_id": 1720564167, "osm_type": "nodes" }, "geometry": { "type": "Point", "coordinates": [ 53.9799962, 17.1201627 ] } },
{ "type": "Feature", "properties": { "name": "صهلنوت", "name:en": "Sahalnawt", "place": "village", "landuse": null, "population": null, "is_in": "Oman , عُمان", "source": null, "name:ar": "صحلنوت", "osm_id": 1720542516, "osm_type": "nodes" }, "geometry": { "type": "Point", "coordinates": [ 54.1801452, 17.1398626 ] } },
{ "type": "Feature", "properties": { "name": "بيت فقيت", "name:en": "Bayt Fiqayt", "place": "village", "landuse": null, "population": null, "is_in": "Oman , عُمان", "source": null, "name:ar": "بيت فقيت", "osm_id": 1720528726, "osm_type": "nodes" }, "geometry": { "type": "Point", "coordinates": [ 54.42, 17.15 ] } },
{ "type": "Feature", "properties": { "name": "هبكيت", "name:en": "Habkayt", "place": "village", "landuse": null, "population": null, "is_in": "Oman , عُمان", "source": null, "name:ar": "هبكيت", "osm_id": 1720562312, "osm_type": "nodes" }, "geometry": { "type": "Point", "coordinates": [ 54.03, 17.11 ] } },
{ "type": "Feature", "properties": { "name": "حيوت", "name:en": "Hayawt", "place": "village", "landuse": null, "population": null, "is_in": "Oman , عُمان", "source": null, "name:ar": "حيوت", "osm_id": 1720562319, "osm_type": "nodes" }, "geometry": { "type": "Point", "coordinates": [ 54.0002421, 17.1205568 ] } },
{ "type": "Feature", "properties": { "name": "جبجعت", "name:en": "Jibjaat", "place": "village", "landuse": null, "population": null, "is_in": "Oman , عُمان", "source": null, "name:ar": "جبجعت", "osm_id": 1720534210, "osm_type": "nodes" }, "geometry": { "type": "Point", "coordinates": [ 54.4998864, 17.2494359 ] } },
{ "type": "Feature", "properties": { "name": "كرتليت", "name:en": "Kartlayt", "place": "village", "landuse": null, "population": null, "is_in": "Oman , عُمان", "source": null, "name:ar": "كرتليت", "osm_id": 1720528730, "osm_type": "nodes" }, "geometry": { "type": "Point", "coordinates": [ 54.46, 17.13 ] } },
{ "type": "Feature", "properties": { "name": "خسر", "name:en": "Khasur", "place": "village", "landuse": null, "population": null, "is_in": "Oman , عُمان", "source": null, "name:ar": "خسر", "osm_id": 1720525738, "osm_type": "nodes" }, "geometry": { "type": "Point", "coordinates": [ 54.39, 17.1 ] } },
{ "type": "Feature", "properties": { "name": "كنهت", "name:en": "Kinhat", "place": "village", "landuse": null, "population": null, "is_in": "Oman , عُمان", "source": null, "name:ar": "كنهت", "osm_id": 1720530835, "osm_type": "nodes" }, "geometry": { "type": "Point", "coordinates": [ 54.38, 17.2 ] } },
{ "type": "Feature", "properties": { "name": "Khidr Marghuth", "name:en": null, "place": "village", "landuse": null, "population": null, "is_in": "Oman , عُمان", "source": null, "name:ar": "خدر مرغوث", "osm_id": 1720585421, "osm_type": "nodes" }, "geometry": { "type": "Point", "coordinates": [ 54.12, 17.09 ] } },
{ "type": "Feature", "properties": { "name": "رسم", "name:en": "Rism", "place": "village", "landuse": null, "population": null, "is_in": "Oman , عُمان", "source": null, "name:ar": "رسم", "osm_id": 1720555144, "osm_type": "nodes" }, "geometry": { "type": "Point", "coordinates": [ 54.0898222, 17.1398282 ] } },
{ "type": "Feature", "properties": { "name": "شحيط", "name:en": "Shuhayt", "place": "village", "landuse": null, "population": null, "is_in": "Oman , عُمان", "source": null, "name:ar": "شحيط", "osm_id": 1720526702, "osm_type": "nodes" }, "geometry": { "type": "Point", "coordinates": [ 54.4402247, 17.1203682 ] } },
{ "type": "Feature", "properties": { "name": "إنداف", "name:en": "Indaf", "place": "village", "landuse": null, "population": null, "is_in": "Oman , عُمان", "source": null, "name:ar": "إنداف", "osm_id": 1720525736, "osm_type": "nodes" }, "geometry": { "type": "Point", "coordinates": [ 54.38, 17.08 ] } },
{ "type": "Feature", "properties": { "name": "فرق السعدييان", "name:en": "Firq as Sadiyan", "place": "village", "landuse": null, "population": null, "is_in": "Oman , عُمان", "source": null, "name:ar": "فرق السعدييان", "osm_id": 1721769219, "osm_type": "nodes" }, "geometry": { "type": "Point", "coordinates": [ 58.9283392, 23.0499649 ] } },
{ "type": "Feature", "properties": { "name": "فرق الزمييان", "name:en": "Firq az Zamiyan", "place": "village", "landuse": null, "population": null, "is_in": "Oman , عُمان", "source": null, "name:ar": "فرق الزمييان", "osm_id": 1721769222, "osm_type": "nodes" }, "geometry": { "type": "Point", "coordinates": [ 58.9409094, 23.0410523 ] } },
{ "type": "Feature", "properties": { "name": "منقس", "name:en": "Munqas", "place": "hamlet", "landuse": null, "population": null, "is_in": "Oman , عُمان", "source": null, "name:ar": "منقس", "osm_id": 1720980991, "osm_type": "nodes" }, "geometry": { "type": "Point", "coordinates": [ 59.13, 22.94 ] } },
{ "type": "Feature", "properties": { "name": "رملة", "name:en": "Ramlah", "place": "village", "landuse": null, "population": null, "is_in": "Oman , عُمان", "source": null, "name:ar": "رملة", "osm_id": 1720969678, "osm_type": "nodes" }, "geometry": { "type": "Point", "coordinates": [ 59.2494394, 22.83441 ] } },
{ "type": "Feature", "properties": { "name": "الشور", "name:en": "Ash Shawr", "place": "village", "landuse": null, "population": null, "is_in": "Oman , عُمان", "source": null, "name:ar": "الشور", "osm_id": 1720531844, "osm_type": "nodes" }, "geometry": { "type": "Point", "coordinates": [ 54.319802, 17.1507415 ] } },
{ "type": "Feature", "properties": { "name": "بيوت أرم", "name:en": "Buyut Aram", "place": "village", "landuse": null, "population": null, "is_in": "Oman , عُمان", "source": null, "name:ar": "بيوت أرم", "osm_id": 1720525734, "osm_type": "nodes" }, "geometry": { "type": "Point", "coordinates": [ 54.39, 17.09 ] } },
{ "type": "Feature", "properties": { "name": "جموت", "name:en": "Geamawt", "place": "village", "landuse": null, "population": null, "is_in": "Oman , عُمان", "source": null, "name:ar": "جموت", "osm_id": 1720559546, "osm_type": "nodes" }, "geometry": { "type": "Point", "coordinates": [ 54.02, 17.12 ] } },
{ "type": "Feature", "properties": { "name": "غرنوت", "name:en": "Gharnut", "place": "village", "landuse": null, "population": null, "is_in": "Oman , عُمان", "source": null, "name:ar": "غرنوت", "osm_id": 1720540168, "osm_type": "nodes" }, "geometry": { "type": "Point", "coordinates": [ 54.2006036, 17.14968 ] } },
{ "type": "Feature", "properties": { "name": "كزتخيف", "name:en": "Kizetakhayf", "place": "village", "landuse": null, "population": null, "is_in": "Oman , عُمان", "source": null, "name:ar": "كزتخيف", "osm_id": 1720530836, "osm_type": "nodes" }, "geometry": { "type": "Point", "coordinates": [ 54.49, 17.11 ] } },
{ "type": "Feature", "properties": { "name": "رذة", "name:en": "Rudha", "place": "village", "landuse": null, "population": null, "is_in": "Oman , عُمان", "source": null, "name:ar": "رذة", "osm_id": 1718290499, "osm_type": "nodes" }, "geometry": { "type": "Point", "coordinates": [ 54.0200189, 17.1297867 ] } },
{ "type": "Feature", "properties": { "name": "سيلل", "name:en": "Sailal", "place": "village", "landuse": null, "population": null, "is_in": "Oman , عُمان", "source": null, "name:ar": "سيلل", "osm_id": 1720528732, "osm_type": "nodes" }, "geometry": { "type": "Point", "coordinates": [ 54.4519638, 17.1298415 ] } },
{ "type": "Feature", "properties": { "name": "سكن شكفينوت", "name:en": "Sikun Shikfainot", "place": "village", "landuse": null, "population": null, "is_in": "Oman , عُمان", "source": null, "name:ar": "سكن شكفينوت", "osm_id": 1720584372, "osm_type": "nodes" }, "geometry": { "type": "Point", "coordinates": [ 54.1599893, 17.1299028 ] } },
{ "type": "Feature", "properties": { "name": "سذ", "name:en": "Sudh", "place": "village", "landuse": null, "population": null, "is_in": "Oman , عُمان", "source": null, "name:ar": "سذ", "osm_id": 1720578322, "osm_type": "nodes" }, "geometry": { "type": "Point", "coordinates": [ 54.13, 17.05 ] } },
{ "type": "Feature", "properties": { "name": "ثسور", "name:en": "Thissor", "place": "village", "landuse": null, "population": null, "is_in": "Oman , عُمان", "source": null, "name:ar": "ثسور", "osm_id": 1720583797, "osm_type": "nodes" }, "geometry": { "type": "Point", "coordinates": [ 54.1000535, 17.1309716 ] } },
{ "type": "Feature", "properties": { "name": "Al Ghatal الغتل", "name:en": "Al Ghatal", "place": "village", "landuse": null, "population": null, "is_in": null, "source": "https://www.mindat.org/feature-11732206.html", "name:ar": "الغتل", "osm_id": 3218169780, "osm_type": "nodes" }, "geometry": { "type": "Point", "coordinates": [ 56.4060224, 24.5963663 ] } },
{ "type": "Feature", "properties": { "name": "Ar Rawdah الرّوضة", "name:en": "Ar Rawdah", "place": "village", "landuse": null, "population": null, "is_in": null, "source": "https://www.mindat.org/feature-11732218.html", "name:ar": "الروضة", "osm_id": 5609345165, "osm_type": "nodes" }, "geometry": { "type": "Point", "coordinates": [ 56.4628848, 24.613481 ] } },
{ "type": "Feature", "properties": { "name": "Dab`ayn ضبعين", "name:en": "Dab`ayn", "place": "village", "landuse": null, "population": null, "is_in": null, "source": "https://www.mindat.org/feature-285911.html", "name:ar": "ضبعين", "osm_id": 1719523673, "osm_type": "nodes" }, "geometry": { "type": "Point", "coordinates": [ 56.3656794, 24.5144269 ] } },
{ "type": "Feature", "properties": { "name": "Al Muwaythil المويثيل", "name:en": "Al Muwaythil", "place": "village", "landuse": null, "population": null, "is_in": null, "source": "https://www.mindat.org/feature-11732221.html", "name:ar": "المويثيل", "osm_id": 5610283923, "osm_type": "nodes" }, "geometry": { "type": "Point", "coordinates": [ 56.4359755, 24.5623506 ] } },
{ "type": "Feature", "properties": { "name": "Abu Badi", "name:en": "Abu Badi", "place": "hamlet", "landuse": null, "population": null, "is_in": null, "source": "https://www.mindat.org/feature-394082.html", "name:ar": null, "osm_id": 12270556759, "osm_type": "nodes" }, "geometry": { "type": "Point", "coordinates": [ 55.9593138, 24.8361639 ] } },
{ "type": "Feature", "properties": { "name": null, "name:en": null, "place": "hamlet", "landuse": null, "population": null, "is_in": null, "source": null, "name:ar": null, "osm_id": 11832595436, "osm_type": "nodes" }, "geometry": { "type": "Point", "coordinates": [ 56.1654884, 25.8341278 ] } },
{ "type": "Feature", "properties": { "name": "Al Qitaytirah", "name:en": "Al Qitaytirah", "place": "village", "landuse": null, "population": null, "is_in": null, "source": "https://www.mindat.org/feature-11800433.html", "name:ar": null, "osm_id": 3218211090, "osm_type": "nodes" }, "geometry": { "type": "Point", "coordinates": [ 56.3670196, 24.4884969 ] } },
{ "type": "Feature", "properties": { "name": "Um Jari أم الجري", "name:en": "Um Jari", "place": "village", "landuse": null, "population": null, "is_in": null, "source": "https://www.mindat.org/feature-11732220.html", "name:ar": "أم الجري", "osm_id": 5610283922, "osm_type": "nodes" }, "geometry": { "type": "Point", "coordinates": [ 56.4283794, 24.5766355 ] } },
{ "type": "Feature", "properties": { "name": "Al Hulaylah", "name:en": "Al Hulaylah", "place": "hamlet", "landuse": null, "population": null, "is_in": null, "source": "https://www.mindat.org/feature-11800431.html", "name:ar": null, "osm_id": 12272067185, "osm_type": "nodes" }, "geometry": { "type": "Point", "coordinates": [ 56.3155489, 24.4461803 ] } },
{ "type": "Feature", "properties": { "name": "الأشيخرة", "name:en": "Al Ushaykhirah", "place": "village", "landuse": null, "population": null, "is_in": null, "source": "https://www.mindat.org/feature-11780537.html", "name:ar": "الأشيخرة", "osm_id": 5652778893, "osm_type": "nodes" }, "geometry": { "type": "Point", "coordinates": [ 55.9763414, 24.872308 ] } },